"stop_id","stop_code","stop_name","stop_desc","stop_lat","stop_lon","zone_id","stop_url","location_type","parent_station","stop_timezone","wheelchair_boarding","level_id","platform_code"
"102822-NODE/10218963489","","Chez Rifat","","5.349222","-3.975893","","","0","","","0","",""
"102822-NODE/10218963490","","Carrefour garage","","5.347851","-3.975529","","","0","","","0","",""
"102822-NODE/10218963491","","Gorille carrefour","","5.346528","-3.975153","","","0","","","0","",""
"102822-NODE/10218963492","","Carrefour lavage","","5.345986","-3.974986","","","0","","","0","",""
"102822-NODE/10218963494","","Carrefour chefferie","","5.341507","-3.974229","","","0","","","0","",""
"102822-NODE/10218963495","","Carrefour Mosquée Golf","","5.338992","-3.979031","","","0","","","0","",""
"102822-NODE/10218963496","","Campus 2 portail","","5.337776","-3.984756","","","0","","","0","",""
"102822-NODE/10218963497","","District de Police de Cocody","","5.336785","-3.985904","","","0","","","0","",""
"102822-NODE/10218963498","","Campus 1 portail","","5.334455","-3.990403","","","0","","","0","",""
"102822-NODE/10218963499","","Carrefour Kadafy","","5.334673","-3.993748","","","0","","","0","",""
"102822-NODE/10218963500","","Carrefour Nsia","","5.335198","-3.998372","","","0","","","0","",""
"102822-NODE/10218963501","","Feu allocodrome","","5.335478","-4.000491","","","0","","","0","",""
"102822-NODE/10218963502","","Carrefour du marché Cococdy","","5.335702","-4.002202","","","0","","","0","",""
"102822-NODE/10219015672","","Carrefour du marché Cococdy","","5.335875","-4.002003","","","0","","","0","",""
"102822-NODE/10219015673","","Feu de pâtisserie","","5.335557","-3.999462","","","0","","","0","",""
"102822-NODE/10219015674","","Pharmacie Saint Marie","","5.335359","-3.997948","","","0","","","0","",""
"102822-NODE/10219015675","","Carrefour Kadhafi","","5.3348","-3.993374","","","0","","","0","",""
"102822-NODE/10219015676","","Campus 2 portail","","5.334655","-3.990409","","","0","","","0","",""
"102822-NODE/10219015677","","District de Police de Cocody","","5.336991","-3.985947","","","0","","","0","",""
"102822-NODE/10219015678","","Campus 1 portail","","5.337957","-3.984934","","","0","","","0","",""
"102822-NODE/10219015679","","Rond-point Axa","","5.338153","-3.975784","","","0","","","0","",""
"102822-NODE/10219015680","","Carrefour chefferie","","5.341637","-3.974276","","","0","","","0","",""
"102822-NODE/10219015681","","Coco","","5.344137","-3.974528","","","0","","","0","",""
"102822-NODE/10219015682","","Pharmacie Saint Pierre","","5.346128","-3.975091","","","0","","","0","",""
"102822-NODE/10219015683","","Chez Rifat","","5.349381","-3.976078","","","0","","","0","",""
"102822-NODE/10219015684","","Carrefour des prix","","5.350121","-3.976257","","","0","","","0","",""
"102822-NODE/10219015685","","Carrefour Sgbci","","5.351108","-3.976507","","","0","","","0","",""
"102822-NODE/10219084135","","Carrefour jardin","","5.333011","-4.000426","","","0","","","0","",""
"102822-NODE/10219084137","","Patisserie","","5.335958","-4.000061","","","0","","","0","",""
"102822-NODE/10219084138","","Carrefour pâtisserie","","5.336633","-3.999987","","","0","","","0","",""
"102822-NODE/10219084139","","Avant le feu Mermoz","","5.339151","-3.999897","","","0","","","0","",""
"102822-NODE/10219084140","","Feu Mermoz","","5.339554","-3.99984","","","0","","","0","",""
"102822-NODE/10219090522","","Carrefour planet","","5.326095","-4.001554","","","0","","","0","",""
"102822-NODE/10219090523","","Top chef","","5.327202","-4.001413","","","0","","","0","",""
"102822-NODE/10219090524","","Itc","","5.327604","-4.002517","","","0","","","0","",""
"102822-NODE/10219090525","","Carrefour Chancellerie","","5.329235","-4.004903","","","0","","","0","",""
"102822-NODE/10219090526","","Feu Lycée Classique d'Abidjan","","5.330432","-4.004764","","","0","","","0","",""
"102822-NODE/10219090528","","Pharmacie Mermoz","","5.339759","-4.002019","","","0","","","0","",""
"102822-NODE/10219090530","","Sup Elite","","5.341723","-3.999425","","","0","","","0","",""
"102822-NODE/10219090531","","Station","","5.344435","-3.998437","","","0","","","0","",""
"102822-NODE/10219090532","","Insaac","","5.345717","-3.997137","","","0","","","0","",""
"102822-NODE/10219284898","","Carrefour Cma","","5.359425","-3.95377","","","0","","","0","",""
"102822-NODE/10219284899","","Clinique médicale Saint Viateur","","5.359098","-3.952506","","","0","","","0","",""
"102822-NODE/10219284900","","Rond-point de l'ancien camp","","5.358732","-3.951124","","","0","","","0","",""
"102822-NODE/10219284901","","Da Carmen","","5.358539","-3.950095","","","0","","","0","",""
"102822-NODE/10219284902","","Carrefour béton","","5.358176","-3.948906","","","0","","","0","",""
"102822-NODE/10219284903","","Camp ivoire","","5.357922","-3.947563","","","0","","","0","",""
"102822-NODE/10219284904","","Ancien Camp Akouedo","","5.357714","-3.946573","","","0","","","0","",""
"102822-NODE/10219284905","","Carrefour termitières","","5.357491","-3.945202","","","0","","","0","",""
"102822-NODE/10219284906","","Nouveau pont","","5.359259","-3.941693","","","0","","","0","",""
"102822-NODE/10219284907","","Carrefour Village","","5.36031","-3.939908","","","0","","","0","",""
"102822-NODE/10219284908","","1er étage","","5.357335","-3.940393","","","0","","","0","",""
"102822-NODE/10219284909","","Carrefour marché","","5.356623","-3.94051","","","0","","","0","",""
"102822-NODE/10219284910","","Carrefour Akouédo village","","5.355409","-3.940665","","","0","","","0","",""
"102822-NODE/10219284911","","Carrefour marché","","5.356726","-3.9406","","","0","","","0","",""
"102822-NODE/10219284912","","1er étage","","5.357482","-3.940474","","","0","","","0","",""
"102822-NODE/10219284913","","Le lapin","","5.358535","-3.940285","","","0","","","0","",""
"102822-NODE/10219284914","","Immeuble assurance","","5.359327","-3.940154","","","0","","","0","",""
"102822-NODE/10219284915","","Carrefour bambou","","5.357955","-3.943043","","","0","","","0","",""
"102822-NODE/10219284916","","Antenne","","5.357627","-3.94374","","","0","","","0","",""
"102822-NODE/10219299417","","Garage Koné","","5.357418","-3.9444","","","0","","","0","",""
"102822-NODE/10219299418","","Carrefour termitières","","5.35731","-3.945392","","","0","","","0","",""
"102822-NODE/10219299419","","Camp ivoire","","5.357773","-3.947623","","","0","","","0","",""
"102822-NODE/10219299420","","Carrefour béton","","5.358135","-3.949023","","","0","","","0","",""
"102822-NODE/10219299421","","Rond-point de l'ancien camp","","5.358673","-3.951137","","","0","","","0","",""
"102822-NODE/10219299422","","Clinique médicale Saint Viateur","","5.359044","-3.952782","","","0","","","0","",""
"102822-NODE/10219299423","","Carrefour Cma","","5.359437","-3.954245","","","0","","","0","",""
"102822-NODE/10219299424","","Gare Palmeraie Dgi","","5.361168","-3.957872","","","0","","","0","",""
"102822-NODE/10234827985","","Gare Faya","","5.367815","-3.9379","","","0","","","0","",""
"102822-NODE/10234827986","","Atci 1er portail","","5.364927","-3.937102","","","0","","","0","",""
"102822-NODE/10234827987","","Bon Prix","","5.363541","-3.93673","","","0","","","0","",""
"102822-NODE/10234827988","","Petit portail","","5.361829","-3.938476","","","0","","","0","",""
"102822-NODE/10234827989","","Pharmacie","","5.353658","-3.940868","","","0","","","0","",""
"102822-NODE/10234827990","","Petit portail","","5.361916","-3.938548","","","0","","","0","",""
"102822-NODE/10234827991","","Atci 1er portail","","5.36506","-3.937229","","","0","","","0","",""
"102822-NODE/10234827992","","Atci","","5.366735","-3.937684","","","0","","","0","",""
"102822-NODE/10234827993","","Gare Faya","","5.367793","-3.937982","","","0","","","0","",""
"102822-NODE/10265528610","","Cité Sir","","5.39001","-3.929767","","","0","","","0","",""
"102822-NODE/10265528611","","Carrefour Boulangerie","","5.389874","-3.928847","","","0","","","0","",""
"102822-NODE/10265528612","","Carrefour Bassamois","","5.389774","-3.928063","","","0","","","0","",""
"102822-NODE/10265528613","","Carrefour Clinique","","5.389648","-3.927351","","","0","","","0","",""
"102822-NODE/10265528614","","Carrefour Chateau","","5.388875","-3.925674","","","0","","","0","",""
"102822-NODE/10265528615","","Carrefour Prestige","","5.387264","-3.927363","","","0","","","0","",""
"102822-NODE/10265528616","","A l'antenne","","5.385909","-3.928809","","","0","","","0","",""
"102822-NODE/10265528617","","Carrefour Souade","","5.384959","-3.929927","","","0","","","0","",""
"102822-NODE/10265528618","","Carrefour Virage","","5.384384","-3.931933","","","0","","","0","",""
"102822-NODE/10265528619","","Pharmacie Ephrata","","5.382655","-3.931811","","","0","","","0","",""
"102822-NODE/10265528620","","Carrefour Ephrata","","5.380407","-3.931202","","","0","","","0","",""
"102822-NODE/10265528621","","Cité Bnetd","","5.378795","-3.930802","","","0","","","0","",""
"102822-NODE/10265528622","","Carrefour Laureades","","5.376264","-3.930131","","","0","","","0","",""
"102822-NODE/10265528623","","Nouveau goudron Abatta","","5.374186","-3.928967","","","0","","","0","",""
"102822-NODE/10265580836","","Nouveau goudron Abatta","","5.374643","-3.92916","","","0","","","0","",""
"102822-NODE/10265580837","","Carrefour Eglise","","5.375349","-3.929444","","","0","","","0","",""
"102822-NODE/10265580838","","Carrefour Laureades","","5.376506","-3.930353","","","0","","","0","",""
"102822-NODE/10265580839","","Garage","","5.377701","-3.930702","","","0","","","0","",""
"102822-NODE/10265580840","","Carrefour Clinique","","5.379354","-3.931133","","","0","","","0","",""
"102822-NODE/10265580841","","Carrefour Ephrata","","5.380521","-3.931485","","","0","","","0","",""
"102822-NODE/10265580842","","Pharmacie Ephrata","","5.382747","-3.932063","","","0","","","0","",""
"102822-NODE/10265580843","","Maquis Virage","","5.384069","-3.932401","","","0","","","0","",""
"102822-NODE/10265580844","","Carrefour Virage","","5.38466","-3.931732","","","0","","","0","",""
"102822-NODE/10265580845","","Carrefour Cma","","5.385105","-3.930131","","","0","","","0","",""
"102822-NODE/10265580846","","Carrefour Minicar","","5.385648","-3.92942","","","0","","","0","",""
"102822-NODE/10265580847","","A l'antenne","","5.386396","-3.928628","","","0","","","0","",""
"102822-NODE/10265580848","","Carrefour Prestige","","5.387682","-3.927249","","","0","","","0","",""
"102822-NODE/10265580849","","Rond Point du Chateau","","5.389257","-3.925668","","","0","","","0","",""
"102822-NODE/10265580850","","Carrefour Ecole","","5.389479","-3.926875","","","0","","","0","",""
"102822-NODE/10265580851","","Carrefour Clinique","","5.389583","-3.9275","","","0","","","0","",""
"102822-NODE/10265580852","","Carrefour Bassamois","","5.389723","-3.928373","","","0","","","0","",""
"102822-NODE/10265580853","","Carrefour Boulangerie","","5.389813","-3.929128","","","0","","","0","",""
"102822-NODE/10265580854","","Cité Sir","","5.389903","-3.929757","","","0","","","0","",""
"102822-NODE/10268582066","","Carrefour Prestige","","5.387447","-3.927111","","","0","","","0","",""
"102822-NODE/10268582067","","Carrefour Chateau","","5.387193","-3.925691","","","0","","","0","",""
"102822-NODE/10268582068","","Carrefour Sylla","","5.386991","-3.924441","","","0","","","0","",""
"102822-NODE/10268582070","","Cité Prestige","","5.386256","-3.920594","","","0","","","0","",""
"102822-NODE/10268582071","","Cité Prestige","","5.386242","-3.92068","","","0","","","0","",""
"102822-NODE/10268582072","","Carrefour terre ivoire","","5.386765","-3.922983","","","0","","","0","",""
"102822-NODE/10268582073","","Carrefour terre ivoire","","5.386703","-3.923204","","","0","","","0","",""
"102822-NODE/10268582074","","Carrefour Chateau","","5.387133","-3.925706","","","0","","","0","",""
"102822-NODE/10268582075","","Cité Bnetd","","5.378885","-3.930999","","","0","","","0","",""
"102822-NODE/10268582076","","Garage","","5.377372","-3.930427","","","0","","","0","",""
"102822-NODE/10268582077","","Nouveau goudron Abatta","","5.374123","-3.929002","","","0","","","0","",""
"102822-NODE/10273846184","","Arrêt Sotra","","5.399085","-3.951984","","","0","","","0","",""
"102822-NODE/10273846186","","Nouveau Chu","","5.399446","-3.953441","","","0","","","0","",""
"102822-NODE/10273846187","","Carrefour Rois des Rois","","5.396189","-3.93192","","","0","","","0","",""
"102822-NODE/10273846188","","Carrefour Docteur","","5.39656","-3.93457","","","0","","","0","",""
"102822-NODE/10273846189","","Immeuble Rouge","","5.396937","-3.9374","","","0","","","0","",""
"102822-NODE/10273846190","","Carrefour Djorobité","","5.397252","-3.93969","","","0","","","0","",""
"102822-NODE/10273846191","","Carrefour Mosquée","","5.397806","-3.943207","","","0","","","0","",""
"102822-NODE/10273846192","","Carrefour Base Cie","","5.398454","-3.947753","","","0","","","0","",""
"102822-NODE/10273846193","","Nouveau Chu","","5.3995","-3.95386","","","0","","","0","",""
"102822-NODE/10273846194","","Arrêt Sotra","","5.399242","-3.951667","","","0","","","0","",""
"102822-NODE/10273846195","","Carrefour Eglise","","5.399007","-3.950078","","","0","","","0","",""
"102822-NODE/10273846196","","Carrefour Base Cie","","5.398636","-3.947496","","","0","","","0","",""
"102822-NODE/10273846197","","Carrefour Miss Zahoui","","5.398243","-3.944354","","","0","","","0","",""
"102822-NODE/10273846198","","Carrefour Mosquée","","5.398022","-3.943014","","","0","","","0","",""
"102822-NODE/10273846199","","Carrefour Djorobité","","5.397507","-3.93939","","","0","","","0","",""
"102822-NODE/10273846200","","Immeuble Rouge","","5.397155","-3.936962","","","0","","","0","",""
"102822-NODE/10273846201","","Carrefour Docteur","","5.39679","-3.934339","","","0","","","0","",""
"102822-NODE/10273846202","","Carrefour Rois des Rois","","5.396384","-3.931556","","","0","","","0","",""
"102822-NODE/10273846203","","Carrefour Nouvelle Construction","","5.395988","-3.928475","","","0","","","0","",""
"102822-NODE/10273846204","","Carrefour Gendarme","","5.395131","-3.924094","","","0","","","0","",""
"102822-NODE/10273846205","","Carrefour Gendarme","","5.395208","-3.923843","","","0","","","0","",""
"102822-NODE/10273846206","","1er Arrêt","","5.39318","-3.923159","","","0","","","0","",""
"102822-NODE/10273846207","","Rond Point du Chateau","","5.389458","-3.925276","","","0","","","0","",""
"102822-NODE/10273846208","","Au Feu","","5.390975","-3.922529","","","0","","","0","",""
"102822-NODE/10273858209","","Au Feu","","5.39101","-3.922288","","","0","","","0","",""
"102822-NODE/10273858210","","A la Terrasse","","5.389779","-3.924175","","","0","","","0","",""
"102822-NODE/10276806528","","Nouveau goudron Abatta","","5.374379","-3.928898","","","0","","","0","",""
"102822-NODE/10276806529","","Boulangerie","","5.39016","-3.923825","","","0","","","0","",""
"102822-NODE/10276806530","","Carrefour Nouvelle Construction","","5.395838","-3.928953","","","0","","","0","",""
"102822-NODE/10276806531","","Carrefour Miss Zahoui","","5.39806","-3.944726","","","0","","","0","",""
"102822-NODE/10276806532","","Carrefour Nouveau Chu","","5.399365","-3.953972","","","0","","","0","",""
"102822-NODE/10276806533","","Pharmacie Sainte Clémentine","","5.405099","-3.956167","","","0","","","0","",""
"102822-NODE/10276806534","","Carrefour Oribat","","5.413571","-3.962126","","","0","","","0","",""
"102822-NODE/10276806535","","Carrefour Akissi Delta","","5.415155","-3.963279","","","0","","","0","",""
"102822-NODE/10276806536","","Boulangerie Flamand","","5.416863","-3.964482","","","0","","","0","",""
"102822-NODE/10276806537","","Carrefour des prêtes","","5.41964","-3.966755","","","0","","","0","",""
"102822-NODE/10276806538","","Carrefour Cabri","","5.420148","-3.968932","","","0","","","0","",""
"102822-NODE/10276806539","","Carrefou Kanga","","5.418997","-3.97174","","","0","","","0","",""
"102822-NODE/10276806540","","Pharmacie Redemption","","5.416771","-3.974969","","","0","","","0","",""
"102822-NODE/10276806608","","Angre fin goudron","","5.415706","-3.976846","","","0","","","0","",""
"102822-NODE/10276820709","","Carrefour Cité Militaire","","5.417402","-3.974327","","","0","","","0","",""
"102822-NODE/10276820710","","A la Boulangerie","","5.418154","-3.973224","","","0","","","0","",""
"102822-NODE/10276820711","","Carrefou Kanga","","5.419302","-3.971531","","","0","","","0","",""
"102822-NODE/10276820712","","Carrefour Cabri","","5.420264","-3.968536","","","0","","","0","",""
"102822-NODE/10276820713","","Carrefour des prêtes","","5.416709","-3.964191","","","0","","","0","",""
"102822-NODE/10276820714","","EPV les merveilles","","5.415463","-3.963288","","","0","","","0","",""
"102822-NODE/10276820715","","Carrefour Oribat","","5.413662","-3.961941","","","0","","","0","",""
"102822-NODE/10276820716","","Pharmacie Sainte Clémentine","","5.40471","-3.955724","","","0","","","0","",""
"102822-NODE/10276820717","","CHU Angré","","5.39985","-3.956238","","","0","","","0","",""
"102822-NODE/10276820718","","Rond Point du Chateau","","5.389126","-3.92536","","","0","","","0","",""
"102822-NODE/10276820719","","Nouveau goudron Abatta","","5.374464","-3.928936","","","0","","","0","",""
"102822-NODE/10289441892","","Carrefour Duncan","","5.377598","-3.997211","","","0","","","0","",""
"102822-NODE/10289441893","","RTI Publicité","","5.377178","-3.99529","","","0","","","0","",""
"102822-NODE/10289441894","","BOA Agence Rue des jardins","","5.371625","-3.990237","","","0","","","0","",""
"102822-NODE/10289441895","","Nuit Saigon","","5.368406","-3.989748","","","0","","","0","",""
"102822-NODE/10289441896","","Mr Chou","","5.367027","-3.989681","","","0","","","0","",""
"102822-NODE/10289441898","","Club House","","5.366196","-3.989775","","","0","","","0","",""
"102822-NODE/10289441899","","Nuit Saigon","","5.368521","-3.989858","","","0","","","0","",""
"102822-NODE/10289441900","","Pharmacie Saint Joseph","","5.369216","-3.98995","","","0","","","0","",""
"102822-NODE/10289441901","","BOA Agence Rue des jardins","","5.371735","-3.990337","","","0","","","0","",""
"102822-NODE/10289441902","","Indian Bazaar","","5.373309","-3.990588","","","0","","","0","",""
"102822-NODE/10289441903","","Carrefour 12ème","","5.373889","-3.990435","","","0","","","0","",""
"102822-NODE/10289441904","","Carrefour 12ème","","5.373982","-3.990528","","","0","","","0","",""
"102822-NODE/10289441905","","Akwaba","","5.374872","-3.990516","","","0","","","0","",""
"102822-NODE/10289441907","","RTI Publicité","","5.3771","-3.995406","","","0","","","0","",""
"102822-NODE/10290362012","","Akwaba","","5.374663","-3.990447","","","0","","","0","",""
"102822-NODE/10290362014","","Justice du commerce","","5.373244","-3.985335","","","0","","","0","",""
"102822-NODE/10290362015","","Commisariat 30è Art.","","5.373836","-3.984465","","","0","","","0","",""
"102822-NODE/10290362016","","Assurance Royale","","5.37224","-3.982978","","","0","","","0","",""
"102822-NODE/10290362017","","Carrefour Grande Mosquée","","5.371376","-3.982168","","","0","","","0","",""
"102822-NODE/10290362018","","Pharmacie Saint Bernard","","5.367429","-3.979502","","","0","","","0","",""
"102822-NODE/10290362020","","Carrefour Boulangerie","","5.36886","-3.980151","","","0","","","0","",""
"102822-NODE/10290362022","","Ancien Saritel","","5.371277","-3.982161","","","0","","","0","",""
"102822-NODE/10290362023","","Cité Abri 2000","","5.371662","-3.982508","","","0","","","0","",""
"102822-NODE/10290362024","","Assurance Royale","","5.372511","-3.983368","","","0","","","0","",""
"102822-NODE/10290362025","","Commisariat 30è Art.","","5.373741","-3.984739","","","0","","","0","",""
"102822-NODE/10290362026","","Carrefour Gobelet","","5.372949","-3.985549","","","0","","","0","",""
"102822-NODE/10290362027","","Eglise Cema","","5.372437","-3.9861","","","0","","","0","",""
"102822-NODE/10290362028","","Ambassade du Mali","","5.371881","-3.988486","","","0","","","0","",""
"102822-NODE/10290362029","","Ambassade du Mali","","5.371792","-3.988544","","","0","","","0","",""
"102822-NODE/10290362030","","Immigration Canada","","5.371801","-3.989214","","","0","","","0","",""
"102822-NODE/10290362031","","Immigration Canada","","5.371688","-3.989408","","","0","","","0","",""
"102822-NODE/10293232212","","Gare Abatta Village","","5.32822","-3.916714","","","0","","","0","",""
"102822-NODE/10293232213","","Carrefour Pinasse","","5.328178","-3.922469","","","0","","","0","",""
"102822-NODE/10293232214","","Miami beach","","5.332169","-3.922598","","","0","","","0","",""
"102822-NODE/10293232215","","Carrefour Garage","","5.33802","-3.923232","","","0","","","0","",""
"102822-NODE/10293232216","","Oribat","","5.339556","-3.92278","","","0","","","0","",""
"102822-NODE/10293232217","","Carrefour Sicta","","5.342329","-3.922035","","","0","","","0","",""
"102822-NODE/10293232218","","Carrefour Beceao","","5.344725","-3.922437","","","0","","","0","",""
"102822-NODE/10293232219","","Garba Choco","","5.346773","-3.922902","","","0","","","0","",""
"102822-NODE/10293232220","","Gare Nouveau Goudron","","5.347395","-3.923027","","","0","","","0","",""
"102822-NODE/10293232221","","Comzone","","5.348207","-3.923204","","","0","","","0","",""
"102822-NODE/10293232222","","Pancho","","5.34952","-3.923508","","","0","","","0","",""
"102822-NODE/10293232223","","Carrefour Cyber","","5.350213","-3.923676","","","0","","","0","",""
"102822-NODE/10293232224","","Carrefour Veninzoir","","5.351724","-3.924038","","","0","","","0","",""
"102822-NODE/10293232225","","Carrefour Coquivoire","","5.353246","-3.92438","","","0","","","0","",""
"102822-NODE/10293232226","","Carrefour Lapin","","5.354715","-3.924685","","","0","","","0","",""
"102822-NODE/10293232227","","Carrefour Drogba","","5.355531","-3.924881","","","0","","","0","",""
"102822-NODE/10293232228","","AB Center","","5.358136","-3.925481","","","0","","","0","",""
"102822-NODE/10293232229","","Sodeci Abatta","","5.359554","-3.925871","","","0","","","0","",""
"102822-NODE/10293232230","","Prumux","","5.360649","-3.926155","","","0","","","0","",""
"102822-NODE/10293232231","","Carrefour Lumière","","5.36162","-3.926416","","","0","","","0","",""
"102822-NODE/10293232232","","Ferronnerie","","5.363799","-3.927002","","","0","","","0","",""
"102822-NODE/10293232233","","Carrefour Policier","","5.366653","-3.927771","","","0","","","0","",""
"102822-NODE/10293232234","","Gare Nouveau Goudron","","5.370316","-3.928777","","","0","","","0","",""
"102822-NODE/10293246985","","Terminus Nouveau Goudron","","5.371661","-3.928917","","","0","","","0","",""
"102822-NODE/10293246987","","Carrefour El vivo","","5.368766","-3.928119","","","0","","","0","",""
"102822-NODE/10293246988","","Carrefour Policier","","5.366683","-3.927547","","","0","","","0","",""
"102822-NODE/10293246989","","Ferronnerie","","5.36384","-3.926824","","","0","","","0","",""
"102822-NODE/10293246990","","Carrefour Lumière","","5.361798","-3.926286","","","0","","","0","",""
"102822-NODE/10293246991","","Prumux","","5.36065","-3.925987","","","0","","","0","",""
"102822-NODE/10293246992","","AB Center","","5.357832","-3.925235","","","0","","","0","",""
"102822-NODE/10293246993","","Carrefour Drogba","","5.355341","-3.924635","","","0","","","0","",""
"102822-NODE/10293246994","","Carrefour Lapin","","5.354567","-3.924454","","","0","","","0","",""
"102822-NODE/10293246995","","Carrefour Mosquée","","5.35306","-3.924116","","","0","","","0","",""
"102822-NODE/10293246996","","Carrefour Veninzoir","","5.351666","-3.923827","","","0","","","0","",""
"102822-NODE/10293246997","","Carrefour Cyber","","5.350352","-3.923523","","","0","","","0","",""
"102822-NODE/10293246998","","Pancho","","5.349805","-3.923379","","","0","","","0","",""
"102822-NODE/10293246999","","Bananier","","5.349059","-3.923212","","","0","","","0","",""
"102822-NODE/10293247000","","Comzone","","5.34827","-3.923047","","","0","","","0","",""
"102822-NODE/10293247001","","Mondial Beton","","5.347542","-3.922862","","","0","","","0","",""
"102822-NODE/10293247002","","Carrefour le blanc","","5.343969","-3.922084","","","0","","","0","",""
"102822-NODE/10293247003","","Carrefour Sicta","","5.342181","-3.921863","","","0","","","0","",""
"102822-NODE/10293247004","","Oribat","","5.339531","-3.922619","","","0","","","0","",""
"102822-NODE/10293247005","","Carrefour Garage","","5.337685","-3.923126","","","0","","","0","",""
"102822-NODE/10293247006","","Miami beach","","5.332295","-3.92242","","","0","","","0","",""
"102822-NODE/10293247007","","Carrefour Pinasse","","5.3281","-3.922094","","","0","","","0","",""
"102822-NODE/10293247008","","Gare Abatta Village","","5.328297","-3.916737","","","0","","","0","",""
"102822-NODE/10293290885","","Au Lavage","","5.351531","-3.975485","","","0","","","0","",""
"102822-NODE/10293290887","","Pharmacie Saint-Pierre des Rosées","","5.353942","-3.957691","","","0","","","0","",""
"102822-NODE/10293290888","","Bon Pasteur","","5.351081","-3.954397","","","0","","","0","",""
"102822-NODE/10293290889","","Lycée Américain","","5.347975","-3.952781","","","0","","","0","",""
"102822-NODE/10293290890","","Mel Théodore","","5.345521","-3.952473","","","0","","","0","",""
"102822-NODE/10293290891","","Brandon","","5.34109","-3.952229","","","0","","","0","",""
"102822-NODE/10293312731","","Ancien Terminus M'pouto","","5.330909","-3.95717","","","0","","","0","",""
"102822-NODE/10293312732","","Chantier","","5.330288","-3.955159","","","0","","","0","",""
"102822-NODE/10293312733","","Coqivoire","","5.329891","-3.953956","","","0","","","0","",""
"102822-NODE/10293312734","","Mosquee Ciad","","5.329027","-3.951249","","","0","","","0","",""
"102822-NODE/10293312735","","Pharmacie M'Pouto","","5.328425","-3.949083","","","0","","","0","",""
"102822-NODE/10293312736","","Pharmacie Eden","","5.328458","-3.943664","","","0","","","0","",""
"102822-NODE/10293312738","","Vatican","","5.328441","-3.942799","","","0","","","0","",""
"102822-NODE/10293312739","","Panier d'Or","","5.335205","-3.944168","","","0","","","0","",""
"102822-NODE/10293312740","","Carrefour Antenne","","5.340283","-3.945263","","","0","","","0","",""
"102822-NODE/10293312741","","Cité Belles Fleurs Riviera 3","","5.346354","-3.952746","","","0","","","0","",""
"102822-NODE/10293312742","","Lycée Américain","","5.348255","-3.953115","","","0","","","0","",""
"102822-NODE/10293312743","","Ancien Garage","","5.3499","-3.954476","","","0","","","0","",""
"102822-NODE/10293312745","","Pharmacie St Agathe","","5.355237","-3.960981","","","0","","","0","",""
"102822-NODE/10293312746","","Cap Nord","","5.355279","-3.966932","","","0","","","0","",""
"102822-NODE/10293312747","","Sainte Famille","","5.353417","-3.968197","","","0","","","0","",""
"102822-NODE/10293356480","","Boutique Bleue","","5.354512","-3.96253","","","0","","","0","",""
"102822-NODE/10293356481","","Maison Blanche","","5.336937","-3.953691","","","0","","","0","",""
"102822-NODE/10293356482","","Banny","","5.334142","-3.956125","","","0","","","0","",""
"102822-NODE/10293356483","","Carrefour Pinasse","","5.326354","-3.959324","","","0","","","0","",""
"102822-NODE/10293356484","","Terminus Stl","","5.325109","-3.960011","","","0","","","0","",""
"102822-NODE/10293372511","","Terminus Stl","","5.325154","-3.960094","","","0","","","0","",""
"102822-NODE/10293372513","","Carrefour Pinasse","","5.326462","-3.959399","","","0","","","0","",""
"102822-NODE/10293372514","","Carrefour Affi","","5.338644","-3.952427","","","0","","","0","",""
"102822-NODE/10293372515","","Brandon","","5.341701","-3.952452","","","0","","","0","",""
"102822-NODE/10293470011","","Carrefour Martin","","5.332443","-3.936563","","","0","","","0","",""
"102822-NODE/10293470012","","A la foire","","5.333327","-3.937399","","","0","","","0","",""
"102822-NODE/10293470013","","Carrefour Université","","5.334383","-3.938384","","","0","","","0","",""
"102822-NODE/10293470014","","Carrefour Valinbet","","5.336659","-3.940506","","","0","","","0","",""
"102822-NODE/10293470015","","Carrefour Akwaba","","5.33773","-3.941675","","","0","","","0","",""
"102822-NODE/10293470017","","Gare 9 Kilo","","5.356923","-3.962969","","","0","","","0","",""
"102822-NODE/10293476051","","Gare 9 Kilo","","5.356527","-3.962884","","","0","","","0","",""
"102822-NODE/10293476052","","Mel Théodore","","5.345892","-3.952401","","","0","","","0","",""
"102822-NODE/10293476053","","Carrefour Akouédo / Synacassi 2","","5.346107","-3.945638","","","0","","","0","",""
"102822-NODE/10293476054","","Carrefour Antenne","","5.34005","-3.944958","","","0","","","0","",""
"102822-NODE/10293476055","","Carrefour Akwaba","","5.337703","-3.941516","","","0","","","0","",""
"102822-NODE/10293476056","","Pharmacie Bonne Fortune","","5.335391","-3.939195","","","0","","","0","",""
"102822-NODE/10293476057","","Carrefour Université","","5.334592","-3.938475","","","0","","","0","",""
"102822-NODE/10293476058","","A la foire","","5.333312","-3.937274","","","0","","","0","",""
"102822-NODE/10293476059","","Carrefour Martin","","5.33244","-3.936487","","","0","","","0","",""
"102822-NODE/10293476060","","La ferme","","5.331129","-3.935284","","","0","","","0","",""
"102822-NODE/10293476061","","Nouveau marché","","5.329381","-3.93314","","","0","","","0","",""
"102822-NODE/10293476062","","Cocody Riviera M'badon","","5.328692","-3.932421","","","0","","","0","",""
"102822-NODE/10293802641","","Escalier","","5.492889","-4.051714","","","0","","","0","",""
"102822-NODE/10293802642","","La croix","","5.498901","-4.049715","","","0","","","0","",""
"102822-NODE/10293802643","","Carrefour Royaume","","5.498642","-4.050674","","","0","","","0","",""
"102822-NODE/10293802644","","Don Orione","","5.498917","-4.049445","","","0","","","0","",""
"102822-NODE/10293802645","","Don Orione","","5.499048","-4.049266","","","0","","","0","",""
"102822-NODE/10293802646","","Carrefour Marché","","5.499333","-4.04795","","","0","","","0","",""
"102822-NODE/10293802647","","Carrefour Marché","","5.4994","-4.047895","","","0","","","0","",""
"102822-NODE/10293802648","","Carrefour Tanoh","","5.499625","-4.047043","","","0","","","0","",""
"102822-NODE/10293802649","","Hôpital","","5.499846","-4.046403","","","0","","","0","",""
"102822-NODE/10293802650","","Hôpital","","5.499782","-4.046393","","","0","","","0","",""
"102822-NODE/10293802651","","Carrefour Maternité","","5.498391","-4.051287","","","0","","","0","",""
"102822-NODE/10293802652","","Sgbci","","5.497414","-4.051498","","","0","","","0","",""
"102822-NODE/10293802653","","Sgbci","","5.497221","-4.051429","","","0","","","0","",""
"102822-NODE/10293802654","","Shell","","5.495577","-4.051739","","","0","","","0","",""
"102822-NODE/10293802655","","Shell","","5.495302","-4.051676","","","0","","","0","",""
"102822-NODE/10293802656","","Inspection","","5.493653","-4.051798","","","0","","","0","",""
"102822-NODE/10293802657","","Inspection","","5.493505","-4.051625","","","0","","","0","",""
"102822-NODE/10293802658","","Carrefour Château","","5.490714","-4.051722","","","0","","","0","",""
"102822-NODE/10293802659","","Scierie","","5.492364","-4.051697","","","0","","","0","",""
"102822-NODE/10293802660","","Scierie","","5.492255","-4.051586","","","0","","","0","",""
"102822-NODE/10293802661","","Carrefour Château","","5.490555","-4.051561","","","0","","","0","",""
"102822-NODE/10293802662","","Carrefour Zossonkoi","","5.485016","-4.051436","","","0","","","0","",""
"102822-NODE/10293802663","","Carrefour Zossonkoi","","5.484713","-4.051343","","","0","","","0","",""
"102822-NODE/10293854669","","Lavage","","5.496973","-4.063656","","","0","","","0","",""
"102822-NODE/10293854671","","Terminus Seminaire","","5.497876","-4.066043","","","0","","","0","",""
"102822-NODE/10293854672","","Terminus Seminaire","","5.497935","-4.066021","","","0","","","0","",""
"102822-NODE/10293854673","","Carrefour Seminaire","","5.497693","-4.064966","","","0","","","0","",""
"102822-NODE/10293854674","","Carrefour Lycée","","5.495878","-4.062631","","","0","","","0","",""
"102822-NODE/10293854675","","Carrefour Lycée","","5.495753","-4.062408","","","0","","","0","",""
"102822-NODE/10293854676","","En Bas du Pont","","5.494209","-4.061075","","","0","","","0","",""
"102822-NODE/10293854677","","Petit Pont","","5.494197","-4.060737","","","0","","","0","",""
"102822-NODE/10293854678","","En Bas du Pont","","5.492773","-4.056053","","","0","","","0","",""
"102822-NODE/10293854679","","En Bas du Pont","","5.492825","-4.055929","","","0","","","0","",""
"102822-NODE/10293854680","","Sainte Monique","","5.490748","-4.05481","","","0","","","0","",""
"102822-NODE/10293854681","","Sainte Monique","","5.490802","-4.054507","","","0","","","0","",""
"102822-NODE/10293919005","","Grand carrefour","","5.512566","-4.059654","","","0","","","0","",""
"102822-NODE/10293919007","","Au Pont","","5.511133","-4.057645","","","0","","","0","",""
"102822-NODE/10293919008","","Au Pont","","5.511036","-4.057386","","","0","","","0","",""
"102822-NODE/10293941109","","Gendarmerie","","5.506259","-4.053567","","","0","","","0","",""
"102822-NODE/10293941110","","Gendarmerie","","5.505936","-4.053386","","","0","","","0","",""
"102822-NODE/10293941111","","Police","","5.50577","-4.053427","","","0","","","0","",""
"102822-NODE/10293941112","","Police","","5.505299","-4.053194","","","0","","","0","",""
"102822-NODE/10293941113","","Carrefour Yapokoi","","5.504369","-4.053047","","","0","","","0","",""
"102822-NODE/10293941114","","Carrefour Yapokoi","","5.504491","-4.052967","","","0","","","0","",""
"102822-NODE/10293941115","","Schneider","","5.503171","-4.052699","","","0","","","0","",""
"102822-NODE/10293941116","","Schneider","","5.503136","-4.052561","","","0","","","0","",""
"102822-NODE/10293941117","","Pdci","","5.502313","-4.052317","","","0","","","0","",""
"102822-NODE/10293941118","","Mission Catholique","","5.499764","-4.051741","","","0","","","0","",""
"102822-NODE/10293941119","","Mission Catholique","","5.49944","-4.05154","","","0","","","0","",""
"102822-NODE/10293941120","","Carrefour Maternité","","5.498625","-4.051432","","","0","","","0","",""
"102822-NODE/10294996099","","Ancienne Gendarmerie","","5.461919","-4.053912","","","0","","","0","",""
"102822-NODE/10294996100","","Abossia","","5.465491","-4.054307","","","0","","","0","",""
"102822-NODE/10294996101","","Morgue","","5.472415","-4.054374","","","0","","","0","",""
"102822-NODE/10294996102","","Colatier","","5.479778","-4.053632","","","0","","","0","",""
"102822-NODE/10294996103","","Pdci","","5.502502","-4.052559","","","0","","","0","",""
"102822-NODE/10294996104","","Gare Routière","","5.48012","-4.052988","","","0","","","0","",""
"102822-NODE/10294996105","","Carrefour à Gauche","","5.477922","-4.055476","","","0","","","0","",""
"102822-NODE/10294996106","","Carrefour à Gauche","","5.477743","-4.055374","","","0","","","0","",""
"102822-NODE/10294996107","","A l'école","","5.475489","-4.055314","","","0","","","0","",""
"102822-NODE/10294996108","","A l'école","","5.475389","-4.055092","","","0","","","0","",""
"102822-NODE/10295005609","","Kedjenou","","5.469198","-4.052972","","","0","","","0","",""
"102822-NODE/10295005610","","Contrôle","","5.47064","-4.053278","","","0","","","0","",""
"102822-NODE/10295005611","","Contrôle","","5.470456","-4.053011","","","0","","","0","",""
"102822-NODE/10295005612","","Kedjenou","","5.468956","-4.052784","","","0","","","0","",""
"102822-NODE/10295005613","","Berthé","","5.467505","-4.053338","","","0","","","0","",""
"102822-NODE/10295005614","","Abossia","","5.465082","-4.054183","","","0","","","0","",""
"102822-NODE/10295014154","","Carrefour les Roses Vallées","","5.38178","-3.912395","","","0","","","0","",""
"102822-NODE/10295014155","","Station","","5.374754","-3.911779","","","0","","","0","",""
"102822-NODE/10295014156","","Pharmacie","","5.377861","-3.912742","","","0","","","0","",""
"102822-NODE/10295014158","","Grâce Esther","","5.382744","-3.906982","","","0","","","0","",""
"102822-NODE/10295014159","","Cité anthena 6 extension 8","","5.383703","-3.905276","","","0","","","0","",""
"102822-NODE/10295014161","","Grâce Esther","","5.382629","-3.907024","","","0","","","0","",""
"102822-NODE/10295014162","","Carrefour Eglise","","5.38229","-3.907647","","","0","","","0","",""
"102822-NODE/10295014163","","Carrefour les Roses Vallées","","5.381734","-3.912319","","","0","","","0","",""
"102822-NODE/10295014164","","Carrefour Prunelle","","5.379436","-3.912505","","","0","","","0","",""
"102822-NODE/10295014165","","Pharmacie","","5.377796","-3.912703","","","0","","","0","",""
"102822-NODE/10295064212","","Institut Britanique","","5.33279","-3.957321","","","0","","","0","",""
"102822-NODE/10295064213","","Chantier","","5.329605","-3.955257","","","0","","","0","",""
"102822-NODE/10295064214","","Pharmacie Boaz","","5.32824","-3.954233","","","0","","","0","",""
"102822-NODE/10295064215","","Gare des Wôrô Wôrô - M'Pouto","","5.324685","-3.954851","","","0","","","0","",""
"102822-NODE/10295064216","","Gare des Wôrô Wôrô - M'Pouto","","5.324727","-3.954935","","","0","","","0","",""
"102822-NODE/10295064217","","Pharmacie Boaz","","5.328252","-3.95435","","","0","","","0","",""
"102822-NODE/10295064218","","Chantier","","5.330205","-3.955283","","","0","","","0","",""
"102822-NODE/10295064219","","Carrefour Philadelphie","","5.331009","-3.957748","","","0","","","0","",""
"102822-NODE/10295106545","","Carrefour Medical","","5.386233","-3.912986","","","0","","","0","",""
"102822-NODE/10295106546","","Carrefour Panneau 50","","5.393609","-3.907955","","","0","","","0","",""
"102822-NODE/10295106547","","Carrefour Residence","","5.391508","-3.910262","","","0","","","0","",""
"102822-NODE/10295106549","","Carrefour Residence","","5.391439","-3.910262","","","0","","","0","",""
"102822-NODE/10295106550","","Carrefour Eglise","","5.391735","-3.911831","","","0","","","0","",""
"102822-NODE/10295106551","","Carrefour Eglise","","5.391659","-3.911894","","","0","","","0","",""
"102822-NODE/10295106552","","Carrefour Medical","","5.386338","-3.9129","","","0","","","0","",""
"102822-NODE/10295106553","","Carrefour Moye-Dhan","","5.385404","-3.912586","","","0","","","0","",""
"102822-NODE/10295106554","","Carrefour Moye-Dhan","","5.385193","-3.912485","","","0","","","0","",""
"102822-NODE/10295106555","","Carrefour Panneau Stop","","5.383776","-3.912493","","","0","","","0","",""
"102822-NODE/10295106556","","Carrefour Panneau Stop","","5.383749","-3.91242","","","0","","","0","",""
"102822-NODE/10295106557","","Carrefour Panneau","","5.381064","-3.912317","","","0","","","0","",""
"102822-NODE/10295106558","","Carrefour Miri","","5.382932","-3.912506","","","0","","","0","",""
"102822-NODE/10295106559","","Carrefour Miri","","5.383136","-3.912397","","","0","","","0","",""
"102822-NODE/10295106560","","Carrefour Panneau","","5.381031","-3.912266","","","0","","","0","",""
"102822-NODE/10295106561","","Gare Feh Kessé","","5.37429","-3.911265","","","0","","","0","",""
"102822-NODE/10295106738","","Au guerré","","5.347741","-3.941576","","","0","","","0","",""
"102822-NODE/10295106739","","Elishama","","5.347411","-3.942279","","","0","","","0","",""
"102822-NODE/10295106740","","Carrefour Mosquée","","5.346814","-3.943437","","","0","","","0","",""
"102822-NODE/10295106741","","A l'etage","","5.3467","-3.94395","","","0","","","0","",""
"102822-NODE/10295106742","","Carrefour Alpha","","5.353412","-3.969807","","","0","","","0","",""
"102822-NODE/10295106743","","Elysée Viera","","5.351852","-3.971738","","","0","","","0","",""
"102822-NODE/10295136978","","Carrefour Antenne","","5.339872","-3.945206","","","0","","","0","",""
"102822-NODE/10295136979","","Panier d'Or","","5.335093","-3.943934","","","0","","","0","",""
"102822-NODE/10295136980","","Ambassade de Chine","","5.331373","-3.940443","","","0","","","0","",""
"102822-NODE/10295136981","","Carrefour M'Badon","","5.328871","-3.938397","","","0","","","0","",""
"102822-NODE/10295136982","","Ecole Libanaise","","5.328345","-3.945056","","","0","","","0","",""
"102822-NODE/10295136983","","Mosquee Ciad","","5.328796","-3.95083","","","0","","","0","",""
"102822-NODE/10295136984","","Pharmacie M'Pouto","","5.328335","-3.949093","","","0","","","0","",""
"102822-NODE/10295136985","","Hôtel Coquette","","5.329161","-3.938182","","","0","","","0","",""
"102822-NODE/10295136986","","Ambassade de Chine","","5.333145","-3.942182","","","0","","","0","",""
"102822-NODE/10295136987","","Cité de doyen","","5.335944","-3.944854","","","0","","","0","",""
"102822-NODE/10295139991","","A l'etage","","5.346718","-3.944064","","","0","","","0","",""
"102822-NODE/10295248947","","Lycée Garçon de Bingerville","","5.357895","-3.890668","","","0","","","0","",""
"102822-NODE/10295248948","","Empt","","5.360285","-3.890488","","","0","","","0","",""
"102822-NODE/10295248949","","Ecole","","5.362724","-3.890295","","","0","","","0","",""
"102822-NODE/10295248950","","Carrefour Beauté","","5.375327","-3.887346","","","0","","","0","",""
"102822-NODE/10295248951","","Carrefour Jardin","","5.374521","-3.884949","","","0","","","0","",""
"102822-NODE/10295248952","","Carrefour Jardin","","5.374466","-3.884897","","","0","","","0","",""
"102822-NODE/10295248953","","Carrefour Beauté","","5.375304","-3.88745","","","0","","","0","",""
"102822-NODE/10295248955","","Pharmacie","","5.375675","-3.888839","","","0","","","0","",""
"102822-NODE/10295248956","","Pharmacie","","5.37566","-3.889028","","","0","","","0","",""
"102822-NODE/10295248957","","Ecole","","5.362635","-3.890233","","","0","","","0","",""
"102822-NODE/10295248958","","Orphelinat","","5.359794","-3.888154","","","0","","","0","",""
"102822-NODE/10295423497","","Pharmacie Bel Horizon","","5.405973","-3.990681","","","0","","","0","",""
"102822-NODE/10295423498","","Carrefour Batim","","5.409948","-3.985271","","","0","","","0","",""
"102822-NODE/10295423499","","Pharmacie Centrale Angré","","5.411286","-3.983327","","","0","","","0","",""
"102822-NODE/10295423500","","Pharmacie du château Angré","","5.413613","-3.979966","","","0","","","0","",""
"102822-NODE/10295423501","","Sococé","","5.413107","-3.980707","","","0","","","0","",""
"102822-NODE/10295528942","","Carrefour Auberge","","5.364112","-3.896652","","","0","","","0","",""
"102822-NODE/10295528943","","Au Boeuf","","5.371875","-3.895504","","","0","","","0","",""
"102822-NODE/10295528944","","Carrefour Eglise","","5.383368","-3.893895","","","0","","","0","",""
"102822-NODE/10295528945","","Belle Cote","","5.385441","-3.892936","","","0","","","0","",""
"102822-NODE/10295528946","","1er Lavage","","5.387369","-3.892785","","","0","","","0","",""
"102822-NODE/10295528947","","2ème Lavage","","5.391051","-3.89372","","","0","","","0","",""
"102822-NODE/10295528948","","Maison Blanche","","5.392381","-3.893964","","","0","","","0","",""
"102822-NODE/10295528949","","A l'immeuble","","5.395463","-3.894624","","","0","","","0","",""
"102822-NODE/10295528950","","Carrefour Cie","","5.396406","-3.894877","","","0","","","0","",""
"102822-NODE/10295528951","","Mosquée","","5.397234","-3.895081","","","0","","","0","",""
"102822-NODE/10295528952","","Washington","","5.398167","-3.895337","","","0","","","0","",""
"102822-NODE/10295528953","","Carrefour Kadafi","","5.3988","-3.895468","","","0","","","0","",""
"102822-NODE/10295528954","","Ecole","","5.399585","-3.895677","","","0","","","0","",""
"102822-NODE/10295528955","","Carrefour La Vieille","","5.400953","-3.895976","","","0","","","0","",""
"102822-NODE/10295528956","","Entrepôt","","5.40231","-3.896285","","","0","","","0","",""
"102822-NODE/10295528957","","Maison en fer","","5.405381","-3.895717","","","0","","","0","",""
"102822-NODE/10295528958","","Carrefour George","","5.407258","-3.89535","","","0","","","0","",""
"102822-NODE/10295528959","","Carrefour Camp","","5.411385","-3.900292","","","0","","","0","",""
"102822-NODE/10295528960","","Panneau Akandjé","","5.412524","-3.898543","","","0","","","0","",""
"102822-NODE/10295528961","","Carrefour Camp","","5.411221","-3.899972","","","0","","","0","",""
"102822-NODE/10295528962","","Carrefour George","","5.407194","-3.895177","","","0","","","0","",""
"102822-NODE/10295528963","","Maison en fer","","5.405243","-3.89565","","","0","","","0","",""
"102822-NODE/10295528964","","St Michel","","5.404747","-3.895994","","","0","","","0","",""
"102822-NODE/10295528965","","Entrepôt","","5.40225","-3.896192","","","0","","","0","",""
"102822-NODE/10295528966","","Carrefour La Vieille","","5.40088","-3.895861","","","0","","","0","",""
"102822-NODE/10295528967","","Ecole","","5.399603","-3.895567","","","0","","","0","",""
"102822-NODE/10295528968","","Carrefour Kadafi","","5.398762","-3.895341","","","0","","","0","",""
"102822-NODE/10295528969","","Washington","","5.398138","-3.895213","","","0","","","0","",""
"102822-NODE/10295528970","","Mosquée","","5.397212","-3.894992","","","0","","","0","",""
"102822-NODE/10295528971","","Carrefour Cie","","5.396384","-3.894787","","","0","","","0","",""
"102822-NODE/10295528972","","A l'immeuble","","5.395439","-3.894578","","","0","","","0","",""
"102822-NODE/10295528973","","Pharmacie Akandjé","","5.394016","-3.894223","","","0","","","0","",""
"102822-NODE/10295528974","","Maison Blanche","","5.392351","-3.89376","","","0","","","0","",""
"102822-NODE/10295528975","","2ème Lavage","","5.390989","-3.893462","","","0","","","0","",""
"102822-NODE/10295528976","","Lavage Auto","","5.389055","-3.893164","","","0","","","0","",""
"102822-NODE/10295528977","","1er Lavage","","5.38742","-3.892695","","","0","","","0","",""
"102822-NODE/10295528978","","Belle Cote","","5.385408","-3.892808","","","0","","","0","",""
"102822-NODE/10295528979","","Carrefour Eglise","","5.383318","-3.893851","","","0","","","0","",""
"102822-NODE/10295528980","","Au Boeuf","","5.371787","-3.895396","","","0","","","0","",""
"102822-NODE/10295528981","","Cap Lavage","","5.368833","-3.895909","","","0","","","0","",""
"102822-NODE/10295528982","","Carrefour Auberge","","5.363986","-3.896589","","","0","","","0","",""
"102822-NODE/10295528983","","Station","","5.361554","-3.894503","","","0","","","0","",""
"102822-NODE/10295603526","","Carrefour Gbagba Nord","","5.350391","-3.884846","","","0","","","0","",""
"102822-NODE/10295603527","","Au Marché","","5.336856","-3.891649","","","0","","","0","",""
"102822-NODE/10295603529","","Lavage","","5.337676","-3.891274","","","0","","","0","",""
"102822-NODE/10295603530","","Lavage","","5.337793","-3.891389","","","0","","","0","",""
"102822-NODE/10295603531","","Carrefour Cave","","5.338446","-3.891089","","","0","","","0","",""
"102822-NODE/10295603532","","Carrefour Cave","","5.338589","-3.891215","","","0","","","0","",""
"102822-NODE/10295603533","","Carrefour Mosquée","","5.34065","-3.890572","","","0","","","0","",""
"102822-NODE/10295603534","","Carrefour Mosquée","","5.340823","-3.890658","","","0","","","0","",""
"102822-NODE/10295603535","","Carrefour Eglise","","5.341855","-3.89026","","","0","","","0","",""
"102822-NODE/10295603536","","Carrefour Eglise","","5.341917","-3.890378","","","0","","","0","",""
"102822-NODE/10295603537","","Marché","","5.343163","-3.890088","","","0","","","0","",""
"102822-NODE/10295603538","","Carrefour Temple","","5.346003","-3.889221","","","0","","","0","",""
"102822-NODE/10295603539","","Pâtisserie","","5.346185","-3.88891","","","0","","","0","",""
"102822-NODE/10295603540","","Carrefour Residence","","5.347369","-3.888825","","","0","","","0","",""
"102822-NODE/10295603541","","Garage","","5.348386","-3.887403","","","0","","","0","",""
"102822-NODE/10295603543","","Pharmacie Gbagba","","5.349117","-3.884974","","","0","","","0","",""
"102822-NODE/10295603544","","Carrefour Gbagba Nord","","5.350529","-3.884965","","","0","","","0","",""
"102822-NODE/10295603545","","Bangui","","5.356419","-3.883257","","","0","","","0","",""
"102822-NODE/10295758266","","Carrefour Sicogi 2","","5.354555","-3.879683","","","0","","","0","",""
"102822-NODE/10295758267","","Carrefour Kiosque","","5.341909","-3.860855","","","0","","","0","",""
"102822-NODE/10295758268","","Laurier 22","","5.337206","-3.860485","","","0","","","0","",""
"102822-NODE/10295758269","","Petit Carrefour","","5.336411","-3.861118","","","0","","","0","",""
"102822-NODE/10295758270","","Eglise","","5.335629","-3.861747","","","0","","","0","",""
"102822-NODE/10295758271","","Après le pont","","5.335017","-3.862201","","","0","","","0","",""
"102822-NODE/10295758272","","Carrefour Fromager","","5.326725","-3.867676","","","0","","","0","",""
"102822-NODE/10295758273","","Carrefour Logement","","5.322925","-3.871817","","","0","","","0","",""
"102822-NODE/10295758274","","Panneau 30","","5.323764","-3.87251","","","0","","","0","",""
"102822-NODE/10295758275","","2 Poteaux","","5.325622","-3.875264","","","0","","","0","",""
"102822-NODE/10295758277","","Maison Blanche","","5.329915","-3.865892","","","0","","","0","",""
"102822-NODE/10295758278","","Panneau 30","","5.323235","-3.869782","","","0","","","0","",""
"102822-NODE/10295758279","","2 Poteaux","","5.325735","-3.875256","","","0","","","0","",""
"102822-NODE/10295758280","","Chantier","","5.324674","-3.873634","","","0","","","0","",""
"102822-NODE/10295758281","","Chantier","","5.32452","-3.873268","","","0","","","0","",""
"102822-NODE/10295758282","","Carrefour Hilaire","","5.323805","-3.87245","","","0","","","0","",""
"102822-NODE/10295758283","","Panneau 30","","5.323188","-3.869925","","","0","","","0","",""
"102822-NODE/10295758284","","Carrefour sable","","5.329545","-3.865989","","","0","","","0","",""
"102822-NODE/10295758285","","Grâce Amitié","","5.333777","-3.863123","","","0","","","0","",""
"102822-NODE/10295758286","","Eglise","","5.335606","-3.861813","","","0","","","0","",""
"102822-NODE/10295758287","","Petit Carrefour","","5.336421","-3.86128","","","0","","","0","",""
"102822-NODE/10295758288","","Laurier 22","","5.337248","-3.860591","","","0","","","0","",""
"102822-NODE/10295758289","","Panneau 50","","5.338985","-3.859345","","","0","","","0","",""
"102822-NODE/10295758290","","Panneau 50","","5.338471","-3.859592","","","0","","","0","",""
"102822-NODE/10295758291","","Carrefour Anan","","5.340177","-3.858369","","","0","","","0","",""
"102822-NODE/10295758292","","Carrefour Anan","","5.340329","-3.858506","","","0","","","0","",""
"102822-NODE/10295758293","","Carrefour Kiosque","","5.341806","-3.860895","","","0","","","0","",""
"102822-NODE/10295758294","","Carrefour Etal","","5.342271","-3.861411","","","0","","","0","",""
"102822-NODE/10295758295","","Carrefour Etal","","5.342254","-3.861603","","","0","","","0","",""
"102822-NODE/10295758296","","Carrefour Motel","","5.344595","-3.865053","","","0","","","0","",""
"102822-NODE/10295758297","","Carrefour Motel","","5.344427","-3.86508","","","0","","","0","",""
"102822-NODE/10295758298","","Menuiserie","","5.347805","-3.870073","","","0","","","0","",""
"102822-NODE/10295758299","","Menuiserie","","5.347703","-3.870099","","","0","","","0","",""
"102822-NODE/10295758300","","Carrefour Eglise / Adjamé Bingerville","","5.349085","-3.871956","","","0","","","0","",""
"102822-NODE/10295758301","","Carrefour Eglise / Adjamé Bingerville","","5.349101","-3.872176","","","0","","","0","",""
"102822-NODE/10295758302","","Bon Prix","","5.351403","-3.875298","","","0","","","0","",""
"102822-NODE/10295758303","","Carrefour Marché","","5.353381","-3.877991","","","0","","","0","",""
"102822-NODE/10295758304","","Carrefour Marché","","5.353528","-3.878354","","","0","","","0","",""
"102822-NODE/10296520783","","Tapis Rouge","","5.403469","-3.982313","","","0","","","0","",""
"102822-NODE/10296520784","","Pharmacie les Arcades/Terminus 205","","5.403379","-3.976079","","","0","","","0","",""
"102822-NODE/10296520785","","Caféier 8","","5.399367","-3.970412","","","0","","","0","",""
"102822-NODE/10296520786","","Programme 6","","5.396855","-3.969211","","","0","","","0","",""
"102822-NODE/10296520787","","Cité Diaspora","","5.399947","-3.96521","","","0","","","0","",""
"102822-NODE/10296520788","","Feu Gestoci","","5.40257","-3.961412","","","0","","","0","",""
"102822-NODE/10296520789","","Dady Shekina","","5.401243","-3.960525","","","0","","","0","",""
"102822-NODE/10296520791","","Programme 6","","5.396803","-3.969349","","","0","","","0","",""
"102822-NODE/10296520792","","Pharmacie Belle vue d’angré","","5.400252","-3.971154","","","0","","","0","",""
"102822-NODE/10296520793","","Jean Paul 2","","5.400456","-3.972028","","","0","","","0","",""
"102822-NODE/10296520794","","Pharmacie les Arcades/Terminus 205","","5.4032","-3.976433","","","0","","","0","",""
"102822-NODE/10296520795","","Tapis Rouge","","5.403419","-3.982442","","","0","","","0","",""
"102822-NODE/10296520796","","Nouvelle Station Petro Ivoire","","5.404032","-3.987556","","","0","","","0","",""
"102822-NODE/10296548822","","Rose Blanche","","5.39879","-3.99328","","","0","","","0","",""
"102822-NODE/10296548824","","Angré Petro Ivoire","","5.404169","-3.990675","","","0","","","0","",""
"102822-NODE/10296548825","","Carrefour Adama Sanogo","","5.401327","-3.991015","","","0","","","0","",""
"102822-NODE/10296548826","","22ème","","5.398375","-3.991772","","","0","","","0","",""
"102822-NODE/10296548827","","Rose Blanche","","5.398706","-3.993452","","","0","","","0","",""
"102822-NODE/10296548829","","Carrefour rue des bars","","5.398946","-3.994359","","","0","","","0","",""
"102822-NODE/10296548830","","Carrefour Temple","","5.399279","-3.995931","","","0","","","0","",""
"102822-NODE/10296548832","","Mahou","","5.399522","-3.997438","","","0","","","0","",""
"102822-NODE/10296557067","","Carrefour Temple","","5.399351","-3.9959","","","0","","","0","",""
"102822-NODE/10296557068","","Caféier 6","","5.407675","-3.988607","","","0","","","0","",""
"102822-NODE/10296557069","","Pharmacie du château Angré","","5.413469","-3.979849","","","0","","","0","",""
"102822-NODE/10296557070","","Geo-Beton","","5.399778","-3.99929","","","0","","","0","",""
"102822-NODE/10296715479","","Hôtel Ivoire","","5.328144","-4.005201","","","0","","","0","",""
"102822-NODE/10296715480","","Hôtel Palm Club","","5.352415","-4.002059","","","0","","","0","",""
"102822-NODE/10296715481","","Farandole","","5.363149","-3.997609","","","0","","","0","",""
"102822-NODE/10296715482","","Carrefour macaci","","5.365339","-3.997605","","","0","","","0","",""
"102822-NODE/10296715483","","2 Plateaux Mobil","","5.368598","-3.998305","","","0","","","0","",""
"102822-NODE/10296715484","","Banque Sgbci","","5.371359","-3.998347","","","0","","","0","",""
"102822-NODE/10296715485","","Petit Carrefour","","5.372522","-3.998542","","","0","","","0","",""
"102822-NODE/10296715486","","Carrefour 12ème arrondissement","","5.374942","-3.998564","","","0","","","0","",""
"102822-NODE/10296715487","","Mahikari","","5.389479","-3.992664","","","0","","","0","",""
"102822-NODE/10296715488","","Ancienne Ambassade de Chine","","5.391912","-3.992366","","","0","","","0","",""
"102822-NODE/10296715489","","Cité Papayer","","5.395707","-3.991886","","","0","","","0","",""
"102822-NODE/10296715490","","22ème","","5.398181","-3.991591","","","0","","","0","",""
"102822-NODE/10296715491","","Carrefour Star 6","","5.406847","-3.989904","","","0","","","0","",""
"102822-NODE/10296727802","","Pharmacie Centrale Angré","","5.411128","-3.983288","","","0","","","0","",""
"102822-NODE/10296727803","","22ème","","5.398575","-3.991346","","","0","","","0","",""
"102822-NODE/10296727804","","Cité Papayer","","5.39608","-3.991634","","","0","","","0","",""
"102822-NODE/10296727805","","Ancienne Ambassade de Chine","","5.391508","-3.992215","","","0","","","0","",""
"102822-NODE/10296727806","","Carrefour Duncan","","5.377782","-3.997171","","","0","","","0","",""
"102822-NODE/10296727807","","Sococe 2 Pltx","","5.373615","-3.998343","","","0","","","0","",""
"102822-NODE/10296727808","","Petit Carrefour","","5.372625","-3.998345","","","0","","","0","",""
"102822-NODE/10296745509","","Banque Sgbci","","5.371288","-3.998117","","","0","","","0","",""
"102822-NODE/10296745510","","Carrefour macaci","","5.365091","-3.997397","","","0","","","0","",""
"102822-NODE/10296745511","","Farandole","","5.363161","-3.997406","","","0","","","0","",""
"102822-NODE/10296745512","","Ena","","5.360718","-3.997659","","","0","","","0","",""
"102822-NODE/10296745513","","Bmw","","5.358156","-4.000967","","","0","","","0","",""
"102822-NODE/10296745514","","Hôtel Palm Club","","5.351963","-4.00194","","","0","","","0","",""
"102822-NODE/10296745515","","Sodemi","","5.344332","-4.002831","","","0","","","0","",""
"102822-NODE/10296745516","","Rti","","5.343152","-4.002972","","","0","","","0","",""
"102822-NODE/10296745517","","Pharmacie St Jean","","5.337344","-4.003734","","","0","","","0","",""
"102822-NODE/10296810721","","Doraville","","5.358991","-3.978462","","","0","","","0","",""
"102822-NODE/10296810722","","Garage Al bayan","","5.360006","-3.978621","","","0","","","0","",""
"102822-NODE/10296810723","","Polyclinique Sacré-Coeur","","5.36481","-3.979337","","","0","","","0","",""
"102822-NODE/10296810724","","Escalier","","5.369477","-3.977706","","","0","","","0","",""
"102822-NODE/10296810725","","Garage Al bayan","","5.360018","-3.978503","","","0","","","0","",""
"102822-NODE/10296873000","","Groupe Scolaire Winner Grâce Faveur","","5.40836","-3.98677","","","0","","","0","",""
"102822-NODE/10296873001","","Pharmacie du Jubilé","","5.406489","-3.985519","","","0","","","0","",""
"102822-NODE/10296873002","","Snedai","","5.405566","-3.984998","","","0","","","0","",""
"102822-NODE/10296873003","","Terminus 81/82","","5.404679","-3.985035","","","0","","","0","",""
"102822-NODE/10296873004","","Terminus 81/82","","5.404692","-3.985123","","","0","","","0","",""
"102822-NODE/10296873005","","Snedai","","5.40565","-3.985119","","","0","","","0","",""
"102822-NODE/10296873006","","Pharmacie du Jubilé","","5.406525","-3.985657","","","0","","","0","",""
"102822-NODE/10297050896","","Ecole","","5.42374","-3.991466","","","0","","","0","",""
"102822-NODE/10297050897","","Ecole","","5.423189","-3.99191","","","0","","","0","",""
"102822-NODE/10297050898","","Lavage Bleu Blanc","","5.423498","-3.995045","","","0","","","0","",""
"102822-NODE/10297050899","","Lavage Bleu Blanc","","5.423494","-3.995276","","","0","","","0","",""
"102822-NODE/10297050900","","Boulangerie","","5.423639","-3.997366","","","0","","","0","",""
"102822-NODE/10297050902","","Eglise","","5.423648","-3.998503","","","0","","","0","",""
"102822-NODE/10297050903","","Eglise","","5.423606","-3.999118","","","0","","","0","",""
"102822-NODE/10297050904","","Hôpital","","5.423666","-4.000364","","","0","","","0","",""
"102822-NODE/10297050905","","Hôpital","","5.42362","-4.000734","","","0","","","0","",""
"102822-NODE/10297050906","","Carrefour Marché","","5.423692","-4.001297","","","0","","","0","",""
"102822-NODE/10297050907","","Ancienne Boulangerie","","5.42359","-4.002835","","","0","","","0","",""
"102822-NODE/10297050908","","Ancienne Boulangerie","","5.423371","-4.002815","","","0","","","0","",""
"102822-NODE/10297103109","","Carrefour a Gauche","","5.421994","-4.003722","","","0","","","0","",""
"102822-NODE/10297103110","","Carrefour Mosquée","","5.422063","-4.002862","","","0","","","0","",""
"102822-NODE/10297103111","","Carrefour Mosquée","","5.421998","-4.002809","","","0","","","0","",""
"102822-NODE/10297103112","","Carrefour a Gauche","","5.421961","-4.003763","","","0","","","0","",""
"102822-NODE/10297103114","","Pharmacie Kennedy","","5.4189","-4.005719","","","0","","","0","",""
"102822-NODE/10297198771","","Allocodrome","","5.396613","-4.003355","","","0","","","0","",""
"102822-NODE/10297198772","","Allocodrome","","5.39656","-4.003568","","","0","","","0","",""
"102822-NODE/10297198773","","Pharmacie","","5.396623","-4.00382","","","0","","","0","",""
"102822-NODE/10297198774","","Pharmacie","","5.396571","-4.004181","","","0","","","0","",""
"102822-NODE/10297198775","","Cité","","5.396651","-4.005441","","","0","","","0","",""
"102822-NODE/10297198776","","Cité","","5.396613","-4.005673","","","0","","","0","",""
"102822-NODE/10297198777","","Arrêt Dokui","","5.396674","-4.006136","","","0","","","0","",""
"102822-NODE/10297198778","","Arrêt Dokui","","5.397038","-4.006437","","","0","","","0","",""
"102822-NODE/10297198779","","Au Sable","","5.400951","-4.006456","","","0","","","0","",""
"102822-NODE/10297198780","","Au Sable","","5.401255","-4.006579","","","0","","","0","",""
"102822-NODE/10298060242","","Ancien Garage","","5.44079","-4.046947","","","0","","","0","",""
"102822-NODE/10298060243","","Glacier","","5.443078","-4.048303","","","0","","","0","",""
"102822-NODE/10298060244","","Plaque Rouge","","5.443536","-4.063871","","","0","","","0","",""
"102822-NODE/10298060247","","Ecole Amani","","5.449479","-4.06265","","","0","","","0","",""
"102822-NODE/10298060248","","Garage Massa/ Bon Prix","","5.443671","-4.058004","","","0","","","0","",""
"102822-NODE/10298060249","","Garage Massa/ Bon Prix","","5.443815","-4.05761","","","0","","","0","",""
"102822-NODE/10298060250","","Petit Carrefour","","5.437187","-4.032443","","","0","","","0","",""
"102822-NODE/10298060251","","Petit Carrefour","","5.437279","-4.031947","","","0","","","0","",""
"102822-NODE/10298060252","","Lavage","","5.435058","-4.028224","","","0","","","0","",""
"102822-NODE/10298060253","","Lavage","","5.435084","-4.027977","","","0","","","0","",""
"102822-NODE/10298060254","","Ancien Garage","","5.431856","-4.025066","","","0","","","0","",""
"102822-NODE/10298060255","","Collé collé","","5.431157","-4.024805","","","0","","","0","",""
"102822-NODE/10298060256","","Collé collé","","5.430512","-4.023989","","","0","","","0","",""
"102822-NODE/10298095231","","A la Mosquée","","5.414658","-4.026424","","","0","","","0","",""
"102822-NODE/10298095232","","Gare des Taxis","","5.414861","-4.030124","","","0","","","0","",""
"102822-NODE/10298095233","","Carrefour Kiosque","","5.414718","-4.027684","","","0","","","0","",""
"102822-NODE/10298095234","","A la Mosquée","","5.414728","-4.026211","","","0","","","0","",""
"102822-NODE/10298095235","","Carrefour 21ème","","5.414779","-4.02414","","","0","","","0","",""
"102822-NODE/10298095236","","Carrefour Mtn","","5.415592","-4.023993","","","0","","","0","",""
"102822-NODE/10298095237","","Carrefour Mtn","","5.415968","-4.024105","","","0","","","0","",""
"102822-NODE/10298095238","","Carrefour Mosquée","","5.417428","-4.023924","","","0","","","0","",""
"102822-NODE/10298095239","","Carrefour Mosquée","","5.417528","-4.024086","","","0","","","0","",""
"102822-NODE/10298095240","","Ecole Diemory","","5.422741","-4.023845","","","0","","","0","",""
"102822-NODE/10298095241","","Ecole Diemory","","5.422957","-4.023924","","","0","","","0","",""
"102822-NODE/10298095242","","Carrefour Bocabo","","5.425317","-4.021916","","","0","","","0","",""
"102822-NODE/10298095243","","Carrefour Bocabo","","5.425457","-4.021783","","","0","","","0","",""
"102822-NODE/10300373019","","Carrefour à gauche","","5.439171","-3.986116","","","0","","","0","",""
"102822-NODE/10300373021","","Abbatoir","","5.451382","-3.975045","","","0","","","0","",""
"102822-NODE/10300373022","","Abbatoir","","5.450541","-3.97523","","","0","","","0","",""
"102822-NODE/10300373023","","Au portail","","5.446208","-3.977798","","","0","","","0","",""
"102822-NODE/10300373024","","Lavage","","5.440373","-3.9849","","","0","","","0","",""
"102822-NODE/10300373025","","Carrefour à gauche","","5.439147","-3.985997","","","0","","","0","",""
"102822-NODE/10300373026","","Isrod","","5.436434","-3.987806","","","0","","","0","",""
"102822-NODE/10300373027","","Isrod","","5.43629","-3.987796","","","0","","","0","",""
"102822-NODE/10300373028","","Carrefour Eaux et Forêt","","5.435297","-3.988252","","","0","","","0","",""
"102822-NODE/10300373029","","Carrefour Eaux et Forêt","","5.43518","-3.98822","","","0","","","0","",""
"102822-NODE/10300373030","","Carrefour Marché","","5.432329","-3.988876","","","0","","","0","",""
"102822-NODE/10300373031","","Carrefour Marché","","5.432181","-3.988839","","","0","","","0","",""
"102822-NODE/10300373032","","Carrefour Mosquée","","5.430385","-3.989173","","","0","","","0","",""
"102822-NODE/10300373033","","Kiyala","","5.429584","-3.989278","","","0","","","0","",""
"102822-NODE/10300373034","","Kiyala","","5.42937","-3.989235","","","0","","","0","",""
"102822-NODE/10300373035","","Carrefour Colombe","","5.429041","-3.989379","","","0","","","0","",""
"102822-NODE/10300373036","","Conteneur","","5.423433","-3.990282","","","0","","","0","",""
"102822-NODE/10300373037","","Foyer des Jeunes","","5.421529","-3.990454","","","0","","","0","",""
"102822-NODE/10300373038","","34eme","","5.420216","-3.990664","","","0","","","0","",""
"102822-NODE/10300373039","","Wottro Gare","","5.419457","-3.99078","","","0","","","0","",""
"102822-NODE/10300373040","","Trois Palmiers","","5.417099","-3.991389","","","0","","","0","",""
"102822-NODE/10300373041","","Trois Palmiers","","5.416935","-3.991395","","","0","","","0","",""
"102822-NODE/10300373042","","Carrefour Chantier","","5.416137","-3.992078","","","0","","","0","",""
"102822-NODE/10300373043","","Carrefour Chantier","","5.416087","-3.992016","","","0","","","0","",""
"102822-NODE/10300373044","","Bienvenue Abobo Baoulé","","5.415476","-3.993195","","","0","","","0","",""
"102822-NODE/10300373045","","Pont Blanc","","5.415344","-3.993555","","","0","","","0","",""
"102822-NODE/10300373046","","Pont Blanc","","5.415183","-3.9937","","","0","","","0","",""
"102822-NODE/10300373047","","Étage Noir","","5.415457","-3.999383","","","0","","","0","",""
"102822-NODE/10300373048","","Ivograin","","5.415573","-4.001644","","","0","","","0","",""
"102822-NODE/10300373049","","Ivograin","","5.415496","-4.00213","","","0","","","0","",""
"102822-NODE/10300373050","","Station Total","","5.415588","-4.002721","","","0","","","0","",""
"102822-NODE/10300373051","","Station Total","","5.415514","-4.003024","","","0","","","0","",""
"102822-NODE/10300373052","","Samaké","","5.415108","-4.006759","","","0","","","0","",""
"102822-NODE/10300817837","","Petit Carrefour","","5.415739","-4.008143","","","0","","","0","",""
"102822-NODE/10302264751","","Garage Cfa","","5.366211","-4.012763","","","0","","","0","",""
"102822-NODE/10302264752","","Manguier","","5.367171","-4.011772","","","0","","","0","",""
"102822-NODE/10302264753","","Pharmacie Bonne Santé","","5.367983","-4.010966","","","0","","","0","",""
"102822-NODE/10302264754","","Virage","","5.368381","-4.010392","","","0","","","0","",""
"102822-NODE/10302264755","","Terrain de Conduite","","5.368423","-4.00978","","","0","","","0","",""
"102822-NODE/10302264756","","Awoulaba","","5.368432","-4.008914","","","0","","","0","",""
"102822-NODE/10302264757","","Bleu Marine","","5.368423","-4.008173","","","0","","","0","",""
"102822-NODE/10302264758","","Pharmacie des Grâces","","5.368421","-4.006822","","","0","","","0","",""
"102822-NODE/10302264759","","Zé 10","","5.368413","-4.006141","","","0","","","0","",""
"102822-NODE/10302264760","","Ancien barrage","","5.368412","-4.005552","","","0","","","0","",""
"102822-NODE/10302264761","","Celeste","","5.36841","-4.004728","","","0","","","0","",""
"102822-NODE/10302264762","","Garage Moto","","5.368421","-4.00283","","","0","","","0","",""
"102822-NODE/10302264763","","Petit Carrefour","","5.368418","-4.001885","","","0","","","0","",""
"102822-NODE/10302264764","","Carrefour du Marché","","5.368421","-4.001302","","","0","","","0","",""
"102822-NODE/10302264765","","Carrefour Mendiant","","5.368428","-3.999929","","","0","","","0","",""
"102822-NODE/10302264766","","Gare de Yopougon - 2 Plateaux Mobil","","5.369048","-3.999911","","","0","","","0","",""
"102822-NODE/10302264767","","Eglise","","5.370982","-3.999929","","","0","","","0","",""
"102822-NODE/10302264768","","Rue des Maquis","","5.371528","-3.999777","","","0","","","0","",""
"102822-NODE/10302264769","","Boulangerie le Roi du Pain","","5.374895","-3.99817","","","0","","","0","",""
"102822-NODE/10302264770","","Pharmacie Maestro","","5.374907","-3.996191","","","0","","","0","",""
"102822-NODE/10302264771","","Grand Portail","","5.373985","-3.994967","","","0","","","0","",""
"102822-NODE/10302264772","","Pharmacie Maestro","","5.374825","-3.996242","","","0","","","0","",""
"102822-NODE/10302264773","","Sococe","","5.372076","-3.999585","","","0","","","0","",""
"102822-NODE/10302264774","","Rue des Maquis","","5.37145","-3.999775","","","0","","","0","",""
"102822-NODE/10302264775","","Gare de Yopougon - 2 Plateaux Mobil","","5.368942","-3.999862","","","0","","","0","",""
"102822-NODE/10302264776","","Carrefour Mendiant","","5.368384","-4.000012","","","0","","","0","",""
"102822-NODE/10302264777","","Carrefour du Marché","","5.368381","-4.00135","","","0","","","0","",""
"102822-NODE/10302264778","","Petit Carrefour","","5.36838","-4.001936","","","0","","","0","",""
"102822-NODE/10302264779","","Ancien Barrage","","5.368352","-4.005588","","","0","","","0","",""
"102822-NODE/10302264780","","Pharmacie des Grâces","","5.368358","-4.006832","","","0","","","0","",""
"102822-NODE/10302264781","","Bleu Marine","","5.368372","-4.00818","","","0","","","0","",""
"102822-NODE/10302264782","","Awoulaba","","5.368378","-4.008836","","","0","","","0","",""
"102822-NODE/10302264783","","Terrain de Conduite","","5.368372","-4.009879","","","0","","","0","",""
"102822-NODE/10302264784","","Pharmacie Bonne Santé","","5.367859","-4.010984","","","0","","","0","",""
"102822-NODE/10302264785","","Manguier","","5.367133","-4.011744","","","0","","","0","",""
"102822-NODE/10302264786","","Garage Cfa","","5.366095","-4.012786","","","0","","","0","",""
"102822-NODE/10302584653","","Ambassade du Togo","","5.361669","-3.992571","","","0","","","0","",""
"102822-NODE/10302584654","","Escaliers","","5.36241","-3.994683","","","0","","","0","",""
"102822-NODE/10302584655","","Cratos","","5.368371","-4.004153","","","0","","","0","",""
"102822-NODE/10302584656","","Celeste","","5.368357","-4.004708","","","0","","","0","",""
"102822-NODE/10302604936","","Pharmacie Orchid","","5.365776","-3.997403","","","0","","","0","",""
"102822-NODE/10302604937","","Orange Côte d'Ivoire","","5.362513","-3.997181","","","0","","","0","",""
"102822-NODE/10302604938","","International Cocoa Organization (Icco)","","5.362521","-3.995331","","","0","","","0","",""
"102822-NODE/10302604939","","Escaliers","","5.362447","-3.994391","","","0","","","0","",""
"102822-NODE/10302604940","","Résidence Bertile","","5.361786","-3.991685","","","0","","","0","",""
"102822-NODE/10302604941","","Ambassade du Togo","","5.361792","-3.992775","","","0","","","0","",""
"102822-NODE/10302629479","","Gare Bangui","","5.356906","-3.884384","","","0","","","0","",""
"102822-NODE/10302629480","","Carrefour Kiosque","","5.347111","-3.884922","","","0","","","0","",""
"102822-NODE/10302629481","","Carrefour Mosquée","","5.345996","-3.884898","","","0","","","0","",""
"102822-NODE/10302629482","","Poubelle","","5.344225","-3.884838","","","0","","","0","",""
"102822-NODE/10302629483","","Marché Berlin","","5.343844","-3.88489","","","0","","","0","",""
"102822-NODE/10302629484","","Marché Berlin","","5.344663","-3.88496","","","0","","","0","",""
"102822-NODE/10302656591","","Panneau 30","","5.353994","-3.884617","","","0","","","0","",""
"102822-NODE/10304347249","","Marley","","5.419498","-4.020433","","","0","","","0","",""
"102822-NODE/10304347250","","Mosquée","","5.414465","-4.022606","","","0","","","0","",""
"102822-NODE/10304347251","","Abobo Gare Mairie","","5.420996","-4.01901","","","0","","","0","",""
"102822-NODE/10304347252","","Marché Siaka Kone","","5.42075","-4.020295","","","0","","","0","",""
"102822-NODE/10304347253","","Marley","","5.419465","-4.020374","","","0","","","0","",""
"102822-NODE/10304347254","","A la Ran","","5.414117","-4.021765","","","0","","","0","",""
"102822-NODE/10304347255","","A la Ran","","5.414409","-4.021944","","","0","","","0","",""
"102822-NODE/10304347256","","Mosquée","","5.414556","-4.022558","","","0","","","0","",""
"102822-NODE/10308544387","","Carrefour Impôt","","5.392715","-3.986532","","","0","","","0","",""
"102822-NODE/10308544388","","ANP(Aitorité Nationale de la Presse)","","5.391348","-3.986703","","","0","","","0","",""
"102822-NODE/10308544389","","Carrefour Pont Soro","","5.390942","-3.986767","","","0","","","0","",""
"102822-NODE/10308544390","","Coopec 7e tranche","","5.390372","-3.986831","","","0","","","0","",""
"102822-NODE/10308544391","","Chawarma +","","5.388798","-3.98698","","","0","","","0","",""
"102822-NODE/10308544392","","Café de Versailles","","5.386664","-3.987269","","","0","","","0","",""
"102822-NODE/10308544393","","Esit","","5.380055","-3.988065","","","0","","","0","",""
"102822-NODE/10308544394","","Clinique Médicale Sacré Coeur","","5.378612","-3.98827","","","0","","","0","",""
"102822-NODE/10308544395","","Pharmacie Tera","","5.377903","-3.988104","","","0","","","0","",""
"102822-NODE/10308544396","","Sodeci","","5.377658","-3.986145","","","0","","","0","",""
"102822-NODE/10308544397","","EPP Attoban","","5.370823","-3.981684","","","0","","","0","",""
"102822-NODE/10308544398","","3ème Barrière","","5.368745","-3.979957","","","0","","","0","",""
"102822-NODE/10308544399","","Pharmacie Saint Bernard","","5.367601","-3.979657","","","0","","","0","",""
"102822-NODE/10308544400","","Doraville","","5.359055","-3.978318","","","0","","","0","",""
"102822-NODE/10308544401","","Riviera 2 - Gare annexe","","5.354504","-3.977644","","","0","","","0","",""
"102822-NODE/10308544403","","EPP Attoban","","5.370802","-3.981733","","","0","","","0","",""
"102822-NODE/10308544404","","Sodeci","","5.377541","-3.985999","","","0","","","0","",""
"102822-NODE/10308544405","","Pharmacie Tera","","5.3779","-3.988351","","","0","","","0","",""
"102822-NODE/10308544406","","Hôtel La Forge","","5.379418","-3.988242","","","0","","","0","",""
"102822-NODE/10308544407","","Esit","","5.379999","-3.988193","","","0","","","0","",""
"102822-NODE/10308544408","","Uia","","5.380987","-3.988088","","","0","","","0","",""
"102822-NODE/10308591409","","Top Auto","","5.38392","-3.987741","","","0","","","0","",""
"102822-NODE/10308591410","","Station Shell 7e Tranche","","5.385261","-3.987526","","","0","","","0","",""
"102822-NODE/10308591411","","Café de Versailles","","5.386795","-3.987351","","","0","","","0","",""
"102822-NODE/10308591413","","Chawarma +","","5.388808","-3.987088","","","0","","","0","",""
"102822-NODE/10308591414","","Coopec 7e tranche","","5.390379","-3.986902","","","0","","","0","",""
"102822-NODE/10308591415","","Carrefour Pont Soro","","5.390945","-3.986844","","","0","","","0","",""
"102822-NODE/10308591416","","ANP(Aitorité Nationale de la Presse)","","5.391356","-3.98683","","","0","","","0","",""
"102822-NODE/10308591417","","Carrefour Impôt","","5.392723","-3.986615","","","0","","","0","",""
"102822-NODE/10308591418","","Carrefour Bluethooth","","5.394095","-3.986454","","","0","","","0","",""
"102822-NODE/10308591419","","Complexe Sportif Angré","","5.397753","-3.986004","","","0","","","0","",""
"102822-NODE/10308625141","","1ère Barrière","","5.367769","-3.979738","","","0","","","0","",""
"102822-NODE/10308625142","","2ème Barrière","","5.36823","-3.979839","","","0","","","0","",""
"102822-NODE/10308625143","","3ème Barrière","","5.368727","-3.980039","","","0","","","0","",""
"102822-NODE/10308625144","","4ème Barrière","","5.36916","-3.980369","","","0","","","0","",""
"102822-NODE/10308625145","","Clinique Médicale Sacré Coeur","","5.378796","-3.988328","","","0","","","0","",""
"102822-NODE/10308625146","","Pharmacie des Nations","","5.396805","-3.989751","","","0","","","0","",""
"102822-NODE/10308658603","","Les Oscars","","5.394635","-3.99088","","","0","","","0","",""
"102822-NODE/10308658604","","1er Carrefour","","5.394225","-3.98756","","","0","","","0","",""
"102822-NODE/10308658605","","Top Auto","","5.383566","-3.987654","","","0","","","0","",""
"102822-NODE/10308658606","","4ème Barrière","","5.369195","-3.98032","","","0","","","0","",""
"102822-NODE/10308658607","","1ère Barrière","","5.367817","-3.979675","","","0","","","0","",""
"102822-NODE/10308658608","","2ème Barrière","","5.368291","-3.979767","","","0","","","0","",""
"102822-NODE/10308815074","","Las Palmas","","5.380927","-3.9962","","","0","","","0","",""
"102822-NODE/10308815075","","Ecole Maternelle","","5.382251","-3.996069","","","0","","","0","",""
"102822-NODE/10308815076","","Marché de Aghien","","5.383062","-3.99557","","","0","","","0","",""
"102822-NODE/10308815077","","Carrefour Mosquée","","5.383926","-3.994715","","","0","","","0","",""
"102822-NODE/10308815078","","Pharmacie les Perles","","5.385469","-3.994158","","","0","","","0","",""
"102822-NODE/10308815079","","Cerao","","5.385225","-3.992176","","","0","","","0","",""
"102822-NODE/10308815080","","Pharmacie Magnificat","","5.385194","-3.991866","","","0","","","0","",""
"102822-NODE/10308815081","","Flamboyant","","5.384744","-3.988207","","","0","","","0","",""
"102822-NODE/10308815082","","Station Service Shell","","5.384656","-3.987436","","","0","","","0","",""
"102822-NODE/10308815083","","Alliance Ci","","5.384507","-3.98493","","","0","","","0","",""
"102822-NODE/10308815084","","Afor","","5.385045","-3.983672","","","0","","","0","",""
"102822-NODE/10308815085","","Ron-point Zinsou","","5.384811","-3.982557","","","0","","","0","",""
"102822-NODE/10308815086","","Restaurant Africain","","5.380733","-3.98738","","","0","","","0","",""
"102822-NODE/10308815087","","Cash Ivoire","","5.385059","-3.991551","","","0","","","0","",""
"102822-NODE/10308815088","","Las Palmas","","5.380911","-3.99608","","","0","","","0","",""
"102822-NODE/10308929518","","Université des Lagune","","5.36045","-3.965615","","","0","","","0","",""
"102822-NODE/10308929519","","Gossio","","5.361435","-3.965904","","","0","","","0","",""
"102822-NODE/10308929520","","Abidjan Mall","","5.362331","-3.966153","","","0","","","0","",""
"102822-NODE/10308929521","","Infes","","5.36409","-3.966699","","","0","","","0","",""
"102822-NODE/10308929522","","Ahmed Outtara","","5.365884","-3.967207","","","0","","","0","",""
"102822-NODE/10308929523","","Pizza Express","","5.366814","-3.967505","","","0","","","0","",""
"102822-NODE/10308929524","","Paul Ndré","","5.367744","-3.967785","","","0","","","0","",""
"102822-NODE/10308929525","","Saint Joseph","","5.369301","-3.96824","","","0","","","0","",""
"102822-NODE/10308929526","","Église des Assemblées de Dieu","","5.370433","-3.96857","","","0","","","0","",""
"102822-NODE/10308929527","","Eglise Réveil","","5.370105","-3.970547","","","0","","","0","",""
"102822-NODE/10308929528","","Laurier 6","","5.371463","-3.970874","","","0","","","0","",""
"102822-NODE/10308929529","","Gravier","","5.373065","-3.970538","","","0","","","0","",""
"102822-NODE/10308929530","","Carrefour Linda Kouassi","","5.372536","-3.970658","","","0","","","0","",""
"102822-NODE/10308929531","","Carrefour Iua","","5.37452","-3.972032","","","0","","","0","",""
"102822-NODE/10308929532","","Ecole Muguet","","5.375987","-3.972479","","","0","","","0","",""
"102822-NODE/10308929533","","Ecole Muguet","","5.375608","-3.972281","","","0","","","0","",""
"102822-NODE/10308929534","","Carrefour Iua","","5.374466","-3.971725","","","0","","","0","",""
"102822-NODE/10308929535","","Gravier","","5.372897","-3.970494","","","0","","","0","",""
"102822-NODE/10308929536","","Carrefour Linda Kouassi","","5.372335","-3.9706","","","0","","","0","",""
"102822-NODE/10308929537","","Laurier 6","","5.371198","-3.970765","","","0","","","0","",""
"102822-NODE/10308929538","","Eglise Réveil","","5.370121","-3.970457","","","0","","","0","",""
"102822-NODE/10308929539","","Bleu blanc","","5.369479","-3.970261","","","0","","","0","",""
"102822-NODE/10308929540","","Aist","","5.368101","-3.969852","","","0","","","0","",""
"102822-NODE/10308929541","","Avocatier","","5.366788","-3.969451","","","0","","","0","",""
"102822-NODE/10308929542","","Cocotier","","5.366003","-3.969208","","","0","","","0","",""
"102822-NODE/10308929543","","Beau Soleil","","5.365196","-3.968993","","","0","","","0","",""
"102822-NODE/10308929544","","Carrefour Djédjé Mady","","5.364408","-3.968748","","","0","","","0","",""
"102822-NODE/10308929545","","Valoris","","5.363782","-3.968544","","","0","","","0","",""
"102822-NODE/10308929546","","Siriki Konaté","","5.362639","-3.968195","","","0","","","0","",""
"102822-NODE/10308929547","","La maison de la destinée","","5.362029","-3.96775","","","0","","","0","",""
"102822-NODE/10308929548","","Abidjan Mall","","5.362353","-3.966051","","","0","","","0","",""
"102822-NODE/10308929549","","Gossio","","5.361338","-3.965748","","","0","","","0","",""
"102822-NODE/10308929550","","Université des Lagune","","5.360283","-3.965426","","","0","","","0","",""
"102822-NODE/10311330180","","Salle du Royaume","","5.363041","-3.960561","","","0","","","0","",""
"102822-NODE/10311330181","","Carrefour Figuier","","5.378828","-3.96683","","","0","","","0","",""
"102822-NODE/10311330183","","Carrefour Michel Yakice / Bon Prix","","5.39461","-3.971055","","","0","","","0","",""
"102822-NODE/10311330184","","King Deco","","5.393987","-3.976576","","","0","","","0","",""
"102822-NODE/10311330185","","Pharmacie les Arums","","5.395822","-3.977047","","","0","","","0","",""
"102822-NODE/10311330186","","Sicomex","","5.398369","-3.977715","","","0","","","0","",""
"102822-NODE/10311330187","","Pharmacie Avé Maria","","5.398242","-3.978745","","","0","","","0","",""
"102822-NODE/10311330188","","Eglise Méthodiste d'Angré","","5.397777","-3.980464","","","0","","","0","",""
"102822-NODE/10311330189","","Niablé","","5.39736","-3.983516","","","0","","","0","",""
"102822-NODE/10311330190","","Université Careffour","","5.398083","-3.989473","","","0","","","0","",""
"102822-NODE/10311330191","","Lonaci","","5.399918","-4.004483","","","0","","","0","",""
"102822-NODE/10311349214","","Sgbci","","5.403112","-3.980173","","","0","","","0","",""
"102822-NODE/10311349215","","Charwarma +","","5.402506","-3.978272","","","0","","","0","",""
"102822-NODE/10311349216","","Sicomex","","5.398417","-3.977581","","","0","","","0","",""
"102822-NODE/10311349217","","Pharmacie les Arums","","5.395659","-3.976836","","","0","","","0","",""
"102822-NODE/10311349218","","King Deco","","5.393956","-3.976414","","","0","","","0","",""
"102822-NODE/10311349219","","Carrefour Prière","","5.393001","-3.976162","","","0","","","0","",""
"102822-NODE/10311349220","","KFC 8eme tranche","","5.389488","-3.975207","","","0","","","0","",""
"102822-NODE/10311349221","","CIE 8e Tranche Djibi","","5.388409","-3.974911","","","0","","","0","",""
"102822-NODE/10311349222","","Star 12","","5.385488","-3.974137","","","0","","","0","",""
"102822-NODE/10311349223","","Rond-Point Cnps","","5.379901","-3.972809","","","0","","","0","",""
"102822-NODE/10311349224","","Mary's","","5.379069","-3.971277","","","0","","","0","",""
"102822-NODE/10311349225","","Shish","","5.378366","-3.96999","","","0","","","0","",""
"102822-NODE/10311349226","","Pharmacie Saint Moise","","5.377841","-3.969048","","","0","","","0","",""
"102822-NODE/10311349227","","Cdci","","5.377078","-3.967626","","","0","","","0","",""
"102822-NODE/10311349228","","Zoe de Cho","","5.376542","-3.966585","","","0","","","0","",""
"102822-NODE/10311349229","","Rond-Point Ado","","5.375688","-3.965912","","","0","","","0","",""
"102822-NODE/10311349230","","Walebo","","5.373156","-3.965272","","","0","","","0","",""
"102822-NODE/10311349231","","Walebo 2","","5.372255","-3.965006","","","0","","","0","",""
"102822-NODE/10311349232","","Cité du Bonheur","","5.367753","-3.963105","","","0","","","0","",""
"102822-NODE/10311349233","","Petro Ivoire","","5.365978","-3.960354","","","0","","","0","",""
"102822-NODE/10311349234","","Rond-Point de la Palmeraie","","5.363963","-3.959699","","","0","","","0","",""
"102822-NODE/10311349235","","Station","","5.362786","-3.959724","","","0","","","0","",""
"102822-NODE/10312856601","","Carrefour Prestige","","5.434698","-3.988426","","","0","","","0","",""
"102822-NODE/10312856602","","Carrefour Soro","","5.45374","-3.973997","","","0","","","0","",""
"102822-NODE/10312856603","","Garage","","5.455651","-3.973204","","","0","","","0","",""
"102822-NODE/10312856604","","Garage","","5.455624","-3.973271","","","0","","","0","",""
"102822-NODE/10312856605","","Terre Rouge","","5.453048","-3.974269","","","0","","","0","",""
"102822-NODE/10312856606","","Carrefour Bnetd","","5.449181","-3.976054","","","0","","","0","",""
"102822-NODE/10312856607","","Carrefour Bnetd","","5.448688","-3.976173","","","0","","","0","",""
"102822-NODE/10312856608","","Carrefour Boulangerie","","5.444256","-3.979598","","","0","","","0","",""
"102822-NODE/10312911409","","Depôt Ivoire","","5.440567","-3.984692","","","0","","","0","",""
"102822-NODE/10312911410","","Depôt Ivoire","","5.440612","-3.984507","","","0","","","0","",""
"102822-NODE/10312911411","","Defao","","5.439875","-3.985428","","","0","","","0","",""
"102822-NODE/10312911412","","Defao","","5.439788","-3.985398","","","0","","","0","",""
"102822-NODE/10312911413","","Carrefour Prestige","","5.434633","-3.988382","","","0","","","0","",""
"102822-NODE/10312911414","","Boulangerie Orange Blanc Vert","","5.427584","-3.989615","","","0","","","0","",""
"102822-NODE/10312911415","","Boulangerie Orange Blanc Vert","","5.427577","-3.989526","","","0","","","0","",""
"102822-NODE/10312946412","","Sainte Marie","","5.433507","-4.020275","","","0","","","0","",""
"102822-NODE/10312946413","","Terminus Marché Avocatier","","5.440578","-4.026098","","","0","","","0","",""
"102822-NODE/10312946414","","Terminus Marché Avocatier","","5.440651","-4.02607","","","0","","","0","",""
"102822-NODE/10312946415","","carrefour Hôpital Henriette Konan Bedié","","5.439739","-4.023861","","","0","","","0","",""
"102822-NODE/10312946416","","carrefour Hôpital Henriette Konan Bedié","","5.439802","-4.023643","","","0","","","0","",""
"102822-NODE/10312946417","","Pharmacie Amina","","5.439738","-4.02285","","","0","","","0","",""
"102822-NODE/10312946418","","Pharmacie Amina","","5.439796","-4.022643","","","0","","","0","",""
"102822-NODE/10312946419","","Carrefour Avocatier","","5.439781","-4.020595","","","0","","","0","",""
"102822-NODE/10312946420","","Carrefour Avocatier","","5.439638","-4.020434","","","0","","","0","",""
"102822-NODE/10312946421","","Cie","","5.439108","-4.020502","","","0","","","0","",""
"102822-NODE/10312946422","","Cie","","5.438674","-4.020413","","","0","","","0","",""
"102822-NODE/10312946423","","Pharmacie Matene","","5.438257","-4.020471","","","0","","","0","",""
"102822-NODE/10312946424","","Pharmacie Matene","","5.438178","-4.020405","","","0","","","0","",""
"102822-NODE/10312946425","","Impôts","","5.436234","-4.020408","","","0","","","0","",""
"102822-NODE/10312946426","","Impôts","","5.4359","-4.020282","","","0","","","0","",""
"102822-NODE/10312946427","","Camp Commando","","5.434804","-4.02023","","","0","","","0","",""
"102822-NODE/10312946428","","Trois Chaton","","5.432375","-4.020246","","","0","","","0","",""
"102822-NODE/10312946429","","Trois Chaton","","5.43231","-4.020157","","","0","","","0","",""
"102822-NODE/10313097238","","Gare Bocabo après les rails","","5.42546","-4.021915","","","0","","","0","",""
"102822-NODE/10313097240","","Premier Carrefour à Droite","","5.431152","-4.028449","","","0","","","0","",""
"102822-NODE/10313097242","","Hôpital Bocabo","","5.425576","-4.034232","","","0","","","0","",""
"102822-NODE/10313097243","","Carrefour Mosquée","","5.42591","-4.03309","","","0","","","0","",""
"102822-NODE/10313097244","","Carrefour Mosquée","","5.425966","-4.033096","","","0","","","0","",""
"102822-NODE/10313097245","","Carrefour Marché","","5.42688","-4.032163","","","0","","","0","",""
"102822-NODE/10313097246","","Carrefour Marché","","5.426978","-4.032171","","","0","","","0","",""
"102822-NODE/10313097247","","Carrefour Celibataire","","5.427677","-4.031621","","","0","","","0","",""
"102822-NODE/10313097248","","Carrefour Celibataire","","5.427784","-4.031608","","","0","","","0","",""
"102822-NODE/10313097249","","Carrefour Boutique Bleu","","5.4286","-4.03082","","","0","","","0","",""
"102822-NODE/10313097250","","Carrefour Boutique Bleu","","5.428662","-4.030831","","","0","","","0","",""
"102822-NODE/10313097251","","Bangui","","5.429275","-4.030272","","","0","","","0","",""
"102822-NODE/10313097252","","Pharmacie","","5.430061","-4.029596","","","0","","","0","",""
"102822-NODE/10313097253","","Pharmacie","","5.430268","-4.029495","","","0","","","0","",""
"102822-NODE/10313097254","","Premier Lavage","","5.430612","-4.029005","","","0","","","0","",""
"102822-NODE/10313097255","","Premier Lavage","","5.430735","-4.029007","","","0","","","0","",""
"102822-NODE/10313097256","","Bâche Bleu","","5.431001","-4.028728","","","0","","","0","",""
"102822-NODE/10313097257","","Bâche Bleu","","5.430888","-4.028691","","","0","","","0","",""
"102822-NODE/10313097258","","Premier Carrefour à Droite","","5.431236","-4.028457","","","0","","","0","",""
"102822-NODE/10313097259","","Boulangerie Solibra","","5.431944","-4.027503","","","0","","","0","",""
"102822-NODE/10313097260","","Carrefour Ancien Garage","","5.430931","-4.026389","","","0","","","0","",""
"102822-NODE/10313097261","","Carrefour Ancien Garage","","5.430865","-4.026239","","","0","","","0","",""
"102822-NODE/10313097262","","Carrefour Falaise","","5.429905","-4.025493","","","0","","","0","",""
"102822-NODE/10313097263","","Carrefour Falaise","","5.429846","-4.025341","","","0","","","0","",""
"102822-NODE/10313097264","","Carrefour Mosquée Blanche","","5.429035","-4.024612","","","0","","","0","",""
"102822-NODE/10313097265","","Carrefour Mosquée Blanche","","5.428998","-4.024494","","","0","","","0","",""
"102822-NODE/10313097266","","Antenne","","5.427723","-4.023441","","","0","","","0","",""
"102822-NODE/10313097267","","Antenne","","5.427768","-4.023423","","","0","","","0","",""
"102822-NODE/10313097268","","Mtn","","5.427073","-4.023012","","","0","","","0","",""
"102822-NODE/10313097269","","Mtn","","5.427039","-4.022937","","","0","","","0","",""
"102822-NODE/10313097270","","Boulangerie","","5.426332","-4.022526","","","0","","","0","",""
"102822-NODE/10313097271","","Boulangerie","","5.426306","-4.022463","","","0","","","0","",""
"102822-NODE/10313097272","","Gare Bocabo après les rails","","5.425793","-4.022188","","","0","","","0","",""
"102822-NODE/10313134976","","Cité Policière","","5.434957","-4.017607","","","0","","","0","",""
"102822-NODE/10313134977","","Cité Policière","","5.435008","-4.017633","","","0","","","0","",""
"102822-NODE/10313134978","","Terminus 49","","5.435021","-4.015364","","","0","","","0","",""
"102822-NODE/10313134979","","Terminus 49","","5.435077","-4.015052","","","0","","","0","",""
"102822-NODE/10313134980","","15e Arrondissement","","5.432769","-4.012765","","","0","","","0","",""
"102822-NODE/10313134981","","St François Xavier","","5.432663","-4.015964","","","0","","","0","",""
"102822-NODE/10313134982","","St François Xavier","","5.43259","-4.016131","","","0","","","0","",""
"102822-NODE/10313134983","","Abobo Gendarmerie","","5.42812","-4.020065","","","0","","","0","",""
"102822-NODE/10313192693","","Abobo Gendarmerie","","5.428144","-4.020135","","","0","","","0","",""
"102822-NODE/10313192694","","Avenue Kaza","","5.438189","-4.019064","","","0","","","0","",""
"102822-NODE/10313192695","","Cours Sociaux","","5.438413","-4.014822","","","0","","","0","",""
"102822-NODE/10313192696","","Carrefour Commissaire","","5.438456","-4.012379","","","0","","","0","",""
"102822-NODE/10313192697","","Carrefour Zouglou","","5.439802","-4.008669","","","0","","","0","",""
"102822-NODE/10313192698","","Coffi Gadeau","","5.442534","-4.008799","","","0","","","0","",""
"102822-NODE/10313192699","","Coffi Gadeau","","5.442462","-4.008725","","","0","","","0","",""
"102822-NODE/10313192700","","Mosquée","","5.441586","-4.008747","","","0","","","0","",""
"102822-NODE/10313192701","","Mosquée","","5.441452","-4.008688","","","0","","","0","",""
"102822-NODE/10313192702","","4 Etages","","5.438725","-4.008631","","","0","","","0","",""
"102822-NODE/10313192703","","4 Etages","","5.438511","-4.008834","","","0","","","0","",""
"102822-NODE/10313192704","","Carrefour Bakary","","5.438482","-4.010599","","","0","","","0","",""
"102822-NODE/10313192705","","Carrefour Bakary","","5.438443","-4.011055","","","0","","","0","",""
"102822-NODE/10313192706","","Sodeci","","5.43842","-4.013243","","","0","","","0","",""
"102822-NODE/10313192707","","Pharmacie Matene","","5.4381","-4.020323","","","0","","","0","",""
"102822-NODE/10313364481","","Gros Pneu","","5.441121","-4.020565","","","0","","","0","",""
"102822-NODE/10313364482","","Carrefour Sainte Foi","","5.444718","-4.020659","","","0","","","0","",""
"102822-NODE/10313364483","","Carrefour Sainte Foi","","5.444539","-4.020614","","","0","","","0","",""
"102822-NODE/10313364484","","Carrefour Policier","","5.437214","-4.020441","","","0","","","0","",""
"102822-NODE/10313364485","","Carrefour Policier","","5.437055","-4.020353","","","0","","","0","",""
"102822-NODE/10313578790","","A l'Ecole","","5.42415","-4.012882","","","0","","","0","",""
"102822-NODE/10313578791","","Boulangerie","","5.439621","-4.014305","","","0","","","0","",""
"102822-NODE/10313578792","","Bangui","","5.448939","-4.013744","","","0","","","0","",""
"102822-NODE/10313578793","","Carrefour Colombe","","5.444969","-4.014494","","","0","","","0","",""
"102822-NODE/10313578794","","Carrefour Colombe","","5.444822","-4.014406","","","0","","","0","",""
"102822-NODE/10313578795","","Carrefour Mosquée","","5.442734","-4.014248","","","0","","","0","",""
"102822-NODE/10313578796","","Chibrou","","5.441234","-4.014363","","","0","","","0","",""
"102822-NODE/10313578797","","Chibrou","","5.441053","-4.014224","","","0","","","0","",""
"102822-NODE/10313578798","","Au palmier","","5.436996","-4.012522","","","0","","","0","",""
"102822-NODE/10313578799","","Au palmier","","5.436886","-4.012425","","","0","","","0","",""
"102822-NODE/10314533512","","A la Boutique","","5.429511","-4.010675","","","0","","","0","",""
"102822-NODE/10314533513","","Carrefour Beoumi","","5.428001","-4.006903","","","0","","","0","",""
"102822-NODE/10314533514","","Carrefour Beoumi","","5.428047","-4.006943","","","0","","","0","",""
"102822-NODE/10314533515","","Carrefour à Droite","","5.428335","-4.006908","","","0","","","0","",""
"102822-NODE/10314533516","","Carrefour à Droite","","5.428394","-4.006962","","","0","","","0","",""
"102822-NODE/10314533517","","Carrefour à Gauche","","5.428591","-4.006917","","","0","","","0","",""
"102822-NODE/10314533518","","Carrefour à Gauche","","5.428645","-4.006973","","","0","","","0","",""
"102822-NODE/10314533519","","Carrefour Eglise","","5.429529","-4.006955","","","0","","","0","",""
"102822-NODE/10314533520","","Carrefour Deux Boutiques Collé","","5.429603","-4.007382","","","0","","","0","",""
"102822-NODE/10314533521","","Petit Carrefour","","5.429578","-4.007893","","","0","","","0","",""
"102822-NODE/10314533522","","Carrefour Séraphin","","5.429498","-4.008688","","","0","","","0","",""
"102822-NODE/10314533523","","2e Boutique","","5.429522","-4.009288","","","0","","","0","",""
"102822-NODE/10314533524","","Carrefour Agbekoi","","5.429454","-4.010114","","","0","","","0","",""
"102822-NODE/10314533525","","Au tournant/ Carrefour Chefferie","","5.42947","-4.011235","","","0","","","0","",""
"102822-NODE/10314533526","","Au tournant/ Carrefour Chefferie","","5.429439","-4.011288","","","0","","","0","",""
"102822-NODE/10314533527","","A l'Ecole","","5.423918","-4.012909","","","0","","","0","",""
"102822-NODE/10314834887","","Mahikari","","5.389931","-3.992427","","","0","","","0","",""
"102822-NODE/10314834888","","Mosquée Aghien","","5.382888","-3.993298","","","0","","","0","",""
"102822-NODE/10314834889","","Carrefour la Vie","","5.349199","-4.002257","","","0","","","0","",""
"102822-NODE/10314834892","","Mosquée Aghien","","5.38288","-3.993463","","","0","","","0","",""
"102822-NODE/10314834893","","Opera","","5.385499","-3.993148","","","0","","","0","",""
"102822-NODE/10314834894","","Ancienne Ambassade de Chine","","5.391883","-3.992182","","","0","","","0","",""
"102822-NODE/10314834896","","Carrefour Batim","","5.408238","-3.992231","","","0","","","0","",""
"102822-NODE/10314834897","","Victor Lobad","","5.411552","-3.994361","","","0","","","0","",""
"102822-NODE/10314834898","","Victor Lobad","","5.411643","-3.994575","","","0","","","0","",""
"102822-NODE/10314834899","","Carrefour Hôpital","","5.412525","-3.994724","","","0","","","0","",""
"102822-NODE/10314834900","","Gare Carrefour Angré","","5.414122","-3.995309","","","0","","","0","",""
"102822-NODE/10314834902","","Gare Carrefour Angré","","5.414083","-3.995423","","","0","","","0","",""
"102822-NODE/10316599907","","Station","","5.363041","-3.959415","","","0","","","0","",""
"102822-NODE/10316599908","","Samer","","5.366314","-3.960539","","","0","","","0","",""
"102822-NODE/10316647710","","Fatima","","5.370451","-3.961764","","","0","","","0","",""
"102822-NODE/10316647711","","Groupe Scolaire Divine Grâce","","5.371506","-3.9612","","","0","","","0","",""
"102822-NODE/10316647712","","Cabine Bleue","","5.372906","-3.960406","","","0","","","0","",""
"102822-NODE/10316647713","","Barrière 1","","5.374092","-3.9625","","","0","","","0","",""
"102822-NODE/10316647714","","Barrière 4","","5.375629","-3.962965","","","0","","","0","",""
"102822-NODE/10316647715","","Barrière 5","","5.376103","-3.96309","","","0","","","0","",""
"102822-NODE/10316647716","","Rosiers 1er Programme","","5.376568","-3.963217","","","0","","","0","",""
"102822-NODE/10316647717","","Rond-point Commissariat 35è Art.","","5.377131","-3.9634","","","0","","","0","",""
"102822-NODE/10316647718","","Commissariat 35è Art.","","5.37769","-3.963568","","","0","","","0","",""
"102822-NODE/10316647719","","Pharmacie Val de Grace","","5.380354","-3.967402","","","0","","","0","",""
"102822-NODE/10316647720","","Groupe Scolaire St Marc","","5.38322","-3.972349","","","0","","","0","",""
"102822-NODE/10316647721","","KFC 8eme tranche","","5.38954","-3.975367","","","0","","","0","",""
"102822-NODE/10316647722","","Soleil 3","","5.391025","-3.975795","","","0","","","0","",""
"102822-NODE/10316684112","","Sgbci","","5.387496","-3.974669","","","0","","","0","",""
"102822-NODE/10316684113","","Immeuble Cgk","","5.383359","-3.973574","","","0","","","0","",""
"102822-NODE/10316684114","","Carrefour Figuier","","5.378886","-3.966786","","","0","","","0","",""
